"CANDIDATE_ID","Prof_cat_exp","Prof_cat_int","Hard_skills_group","Soft_skills","Cards","Education","Languages","Domicile_City","Latitudine","Longitudine"
2654744,NA,"magazziniere/magazziniera;Operaio Generico Metalmeccanico;Addetto alla sorveglianza/vigilanza/antitaccheggio",NA,NA,"B",NA,"Spagnolo","NICHELINO",44.994,7.64182
6004814,NA,"addetto agli scaffali/addetta agli scafali",NA,NA,"Altro;B","Economia aziendale",NA,"AFRAGOLA",40.926,14.3108
6505969,"Montatore meccanico","tecnico meccanico","Meccanica;Produzione",NA,"B","ITS settore Meccanica/Meccatronica","Italiano;Inglese","TRICARICO",40.6176,16.1465
1366425,"saldatore/saldatrice;addetto alla lavorazione dei metalli","Operaio Generico Metalmeccanico;saldatore/saldatrice","Meccanica;Metalmeccanico;Produzione;Saldatura;Browser per Internet","Decision Making;Orientamento alla qualità;Problem solving e analisi;Team Working","B",NA,"Italiano;Altro;Inglese","MONTICHIARI",45.4152,10.3907
5340632,NA,"Operaio Generico Chimico/Farmaceutico;Tecnico di laboratorio biologico (m/f);Vendite e Commercio (altro) (m/f);Assistente di laboratorio (m/f);docente nella formazione professionale;Assistente di studio medico (m/f);tecnico di laboratorio scientifico;Tecnico di laboratorio (Analisi e controllo della produzione) (m/f);Segretario di studio medico (m/f);Addetto alla vendita Libri, Riviste e Cartoleria (m/f);Assistente di biblioteca (m/f);Addetto all'elaborazione di dati (m/f)","Fogli di calcolo / elettronici;Progettazione / Disegno tecnico;Altro;Posta elettronica/Messaggistica;Cucina;Information Technology Altro;Sistemi Operativi;Produzione","Comunicazione;Decision Making","B","Altro","Inglese","CASTEL GOFFREDO",45.2986,10.4754
5988024,NA,"operatore di call center/operatrice di call center",NA,NA,NA,NA,NA,"BRESSO",45.5379,9.18921
5604614,NA,"commesso di punto vendita/shop assistant",NA,"Adattabilità al cambiamento",NA,NA,NA,"PIOSSASCO",44.9905,7.46372
416559,"Operatore CNC (m/f)","Operaio Generico Metalmeccanico;commesso di punto vendita/shop assistant;Operaio Generico Alimentare","Vendita;Altro;Meccanica;Browser per Internet","Comunicazione;Decision Making;Team Working;Orientamento al cliente;Problem solving e analisi;Adattabilità al cambiamento;Iniziativa;Gestione dei cambiamenti","B","Liceo delle scienze umane","Inglese","PONTEVICO",45.2744,10.0925
4478221,NA,"assistente amministrativo",NA,"Comunicazione","B","Istituto magistrale pedagogico sociale;Giurisprudenza (LMG/01)","Inglese","MOLFETTA",41.2002,16.5975
6279023,NA,"Operaio Generico Metalmeccanico",NA,"Comunicazione",NA,NA,NA,"ANGOLO TERME",45.8914,10.1478
1406063,"magazziniere/magazziniera","manutentore;magazziniere/magazziniera;Operaio Generico Gomma/Plastica","Cucina;Magazzino;Piani;Meccanica;Igiene / Pulizia;Vendita;Macchine utensili;Assistenza tecnica;Elettrica / Elettrotecnica;Produzione;Sala","Orientamento alla qualità;Comunicazione;Decision Making;Team Working;Orientamento al cliente;Problem solving e analisi","B;Altro","Installatore, manutentore impianti elettrici","Inglese;Altro","BRESCIA",45.5248,10.2273
2201280,NA,"fattorino/fattorina;Montatore meccanico;Operaio Generico Metalmeccanico;Segretario amministrativo/ segretaria amministrativa;carpentiere/carpentiera;operatore ecologico/operatrice ecologica;Tornitore manuale;addetto agli scaffali/addetta agli scafali;addetto controllo qualità prodotti;impiegato di magazzino;magazziniere/magazziniera;manutentore;saldatore/saldatrice;operaio manovale industriale/operaia manovale industriale;Operatore Telemarketing;attrezzista meccanico/attrezzista meccanica;Operatore su macchine automatiche/semiautomatiche;segretario/segretaria","Magazzino;Metalmeccanico;Vendita;Produzione;Posta elettronica/Messaggistica","Comunicazione","Altro;A;B","Addetto alle vendite;Montatore, manutentore di sistemi elettromeccanici;Mulettista (patentino);Operatore ai servizi di ristorazione;Licenza media;Operatore d'ufficio;Saldatore (patentino)","Italiano","MONTICHIARI",45.4152,10.3907
1372822,"magazziniere/magazziniera;Operaio Generico Alimentare;Operaio Generico Metalmeccanico","Operatore su Stampi;chef pasticcere;Operaio Generico Metalmeccanico","Cucina;Magazzino;Stampaggio;Produzione;Gomma Plastica","Comunicazione","A;B","Licenza media","Inglese;Italiano","COLLEGNO",45.0775,7.57242
5702781,NA,"addetto alla contabilità generale",NA,NA,NA,NA,NA,"MODENA",44.6478,10.9254
4915461,NA,"Addetto Fast Food",NA,NA,NA,NA,NA,"SAN GREGORIO DI CATANIA",37.5653,15.1118
7857576,"Operaio Generico Alimentare","Operaio Generico Metalmeccanico","Altro","Comunicazione",NA,NA,NA,"AZZATE",45.7804,8.79313
2545609,NA,"Operaio Generico Metalmeccanico;Operaio Generico Automotive;magazziniere/magazziniera;Autista","Browser per Internet;Elettrica / Elettrotecnica","Comunicazione","B","Operatore elettrico","Altro;Italiano;Inglese","CIRIE'",45.238,7.5768
3532007,"Operaio Generico","barista;addetto agli scaffali/addetta agli scafali;Banconista;magazziniere/magazziniera;Autista;Operaio Generico Chimico/Farmaceutico;Operaio Generico Metalmeccanico","Produzione;Vendita;Magazzino;Sala","Orientamento alla qualità;Comunicazione;Iniziativa","B;A;Altro","Licenza media","Italiano;Inglese","ROVATO",45.5658,10.0001
3463299,NA,"Operaio Generico Manifatturiero;Collaboratore Informatico Pubblica Amministrazione;magazziniere/magazziniera;commesso di punto vendita/shop assistant;Funzionario Informatico Pubblica Amministrazione;assistente amministrativo","Fogli di calcolo / elettronici;Word Processor - Elaborazione testi;Hardware;Linguaggi di programmazione / Ambienti di sviluppo;Grafici e Presentazioni;Browser per Internet;Database;Posta elettronica/Messaggistica;Sistemi Operativi","Comunicazione;Decision Making","B",NA,"Italiano;Spagnolo;Inglese","RIETI",42.4072,12.8592
6178533,NA,"analista software",NA,NA,NA,NA,NA,"PADOVA",45.4152,11.8818
1407483,NA,"magazziniere/magazziniera;Operaio Generico Alimentare;Magazziniere con funzioni di vendita;Operaio Generico Metalmeccanico;Responsabile punto vendita/filiale;impiegato di magazzino","Magazzino;Vendita;Produzione","Team Working;Orientamento alla qualità;Problem solving e analisi","B;Patentino Piattaforme da Lavoro Elevabili","Perito per la meccanica","Inglese;Italiano","TORINO",45.0705,7.68682
4918205,NA,"gommista;Operaio Generico Alimentare;Operaio Generico Cartotecnico/Grafico;Operaio Generico Metalmeccanico;addetto alle pulizie","Elettrica / Elettrotecnica;Meccanica","Decision Making;Orientamento alla qualità;Comunicazione;Team Working;Iniziativa","B",NA,NA,"CALVISANO",45.3482,10.345
1213809,"Operaio Generico Alimentare;Operaio Generico","commesso di punto vendita/shop assistant;Operatore Telemarketing;barista;Operaio Generico Metalmeccanico","Cucina;Word Processor - Elaborazione testi;Produzione;Magazzino;Posta elettronica/Messaggistica","Orientamento al cliente;Adattabilità al cambiamento;Gestione dei cambiamenti;Comunicazione","B",NA,"Inglese","SOLIGNANO",44.6131,9.97548
2095207,"Operaio Generico Metalmeccanico;Operaio Generico Cartotecnico/Grafico;Operaio Generico;Carrellista/Mulettista","Carrellista/Mulettista","Stampaggio;Altro;Produzione;Gomma Plastica;Strumenti e utensili;Vendita;Magazzino","Comunicazione;Decision Making;Adattabilità al cambiamento;Iniziativa;Orientamento al risultato","B","Licenza media","Inglese;Italiano;Altro","VILLANOVA D'ASTI",44.9418,7.93713
5394513,NA,"addetto alla contabilità generale;analista creditizio/analista creditizia;intermediario finanziario/intermediaria finanziaria;Back Office Titoli",NA,"Decision Making",NA,NA,NA,"VINOVO",44.9467,7.63252
5814292,NA,"commesso di punto vendita/shop assistant",NA,NA,NA,NA,NA,"PEIA",45.7995,9.89926
1942378,"Operaio Generico;Operaio Generico Metalmeccanico;Operatore su macchine automatiche/semiautomatiche","magazziniere/magazziniera;Operaio Generico Metalmeccanico;responsabile officina auto;Autista","Grande distribuzione;Magazzino;Vendita;Meccanica","Orientamento al cliente;Comunicazione;Team Working;Orientamento alla qualità;Problem solving e analisi;Decision Making","B;Altro",NA,NA,"VILLA CARCINA",45.6294,10.1965
5661533,"Operaio Generico Gomma/Plastica","Operaio Generico Metalmeccanico;addetto allo sportello bancario/addetta allo sportello bancario;Collaudatore;Carrellista/Mulettista;Order Entry / Impiegato Customer Service;magazziniere/magazziniera;manutentore","Posta elettronica/Messaggistica;Browser per Internet;Magazzino;Metalmeccanico;Gomma Plastica","Comunicazione","B","Agrotecnico","Inglese","POIRINO",44.9208,7.84693
6374486,"Operaio Generico Metalmeccanico","Operaio Generico Metalmeccanico",NA,NA,NA,NA,NA,"VEROLAVECCHIA",45.3271,10.0572
3531278,"Operaio Generico Metalmeccanico;operatore di macchine CNC/operatrice di macchine CNC","Operaio Generico Metalmeccanico;fresatore","Produzione;Meccanica;Macchine utensili","Comunicazione","B","Licenza media","Inglese;Italiano","ROVATO",45.5658,10.0001
500983,NA,"Operaio Generico Metalmeccanico;Cameriere;commesso di punto vendita/shop assistant","Sala;Cucina","Orientamento al cliente;Adattabilità al cambiamento;Comunicazione;Decision Making","B",NA,"Altro;Inglese","LUMEZZANE",45.6479,10.2649
6519781,NA,"magazziniere/magazziniera",NA,"Comunicazione",NA,NA,NA,"BRESCIA",45.5248,10.2273
928104,NA,"Banconista;Addetto Istruttoria Finanziamanenti /mutui;agente di assicurazione;Segretario amministrativo/ segretaria amministrativa;Autista;Agente-rappresentante di commercio Monomandatario;Consulente del lavoro;Operaio Generico Metalmeccanico","Posta elettronica/Messaggistica;Progettazione / Disegno tecnico;Produzione;Segreteria;Word Processor - Elaborazione testi;Ricevimento;Trasporti;Contact Center;Fogli di calcolo / elettronici","Comunicazione;Orientamento alla qualità;Decision Making","Patentino Piattaforme da Lavoro Elevabili;B;C;D;Altro;CQC Persone;CE","Liceo linguistico;Giurisprudenza (LMG/01)","Inglese;Tedesco;Italiano;Altro","AZZANELLO",45.314,9.91967
464972,NA,"tecnico della produzione alimentare;tecnologo alimentare;addetto controllo qualità prodotti;tecnico dello sviluppo del prodotto","Sicurezza / Qualità;Progettazione;Fogli di calcolo / elettronici;Word Processor - Elaborazione testi","Gestione delle risorse;Iniziativa;Comunicazione;Decision Making;Problem solving e analisi;Adattabilità al cambiamento;Gestione dei cambiamenti;Orientamento alla qualità","B","Tecnico dei servizi della ristorazione;Master indirizzo Chimico/Biologico/Ambientale;Scienze e Tecnologie Alimentari (LM-70)","Altro;Inglese","CUNEO",44.3973,7.54453
3234120,NA,"Back Office Commerciale;Segretario amministrativo/ segretaria amministrativa;segretario/segretaria;segretario di studi legali;assistente amministrativo;Segretario/a commerciale/Marketing/Ufficio Vendite","Contabilità;Word Processor - Elaborazione testi;Fogli di calcolo / elettronici;Grafici e Presentazioni;Contact Center;Sistemi Operativi;Segreteria","Comunicazione","B","Istituto magistrale socio-psico pedagogico;Scienze dei Servizi Giuridici (L-14)","Inglese","SIRMIONE",45.4686,10.6052
467351,"Operaio Generico","assistente di cucina",NA,"Comunicazione","B","Aiuto cuoco",NA,"CHIVASSO",45.1894,7.88722
6485825,NA,"tecnico analista chimico",NA,NA,NA,NA,NA,"PASTENA",41.4689,13.4916
1613635,"Operaio Generico Metalmeccanico;addetto alle pulizie","addetto alle pulizie;magazziniere/magazziniera;Operaio Generico Metalmeccanico","Produzione;Magazzino",NA,"B","Licenza media","Inglese;Italiano;Altro;Tedesco","COLOGNO AL SERIO",45.5821,9.70876
6274668,"Operaio Generico Metalmeccanico","manutentore;Operaio Generico Metalmeccanico;addetto controllo qualità prodotti","Meccanica;Metalmeccanico;Browser per Internet","Adattabilità al cambiamento",NA,NA,"Inglese;Italiano;Altro;Arabo","BRESCIA",45.5248,10.2273
6586952,NA,"Commerciale B2B",NA,"Comunicazione",NA,NA,NA,"TORINO",45.0705,7.68682
7203760,"Operaio Generico Manifatturiero","Operaio Generico Alimentare;Operaio Generico Edile","Trasporti;Produzione","Adattabilità al cambiamento;Iniziativa;Orientamento al risultato;Comunicazione;Decision Making",NA,NA,"Italiano","MERATE",45.6987,9.41165
81273,"Operaio Generico Metalmeccanico","disegnatore meccanico/disegnatrice meccanica;Collaudatore;idraulico",NA,"Adattabilità al cambiamento",NA,NA,NA,"TORINO",45.0705,7.68682
1160043,"Operaio Generico Metalmeccanico;magazziniere/magazziniera","Operaio Generico Metalmeccanico","Vendita;Magazzino;Produzione","Adattabilità al cambiamento;Team Working;Orientamento alla qualità;Problem solving e analisi","B","Licenza media","Inglese;Altro;Italiano","PALAZZOLO SULL'OGLIO",45.6037,9.89716
6674011,NA,"O.S.S. (operatore socio sanitario)",NA,NA,NA,NA,NA,"BUSCA",44.5181,7.47433
6614730,"magazziniere/magazziniera","magazziniere/magazziniera",NA,"Comunicazione",NA,NA,NA,"PONTOGLIO",45.5694,9.85346
6351417,"magazziniere/magazziniera","magazziniere/magazziniera;Operaio Generico Metalmeccanico",NA,NA,NA,NA,NA,"MARTINENGO",45.5731,9.76706
1933502,"addetto alle pulizie","cassiere/cassiera","Grande distribuzione;Vendita",NA,"B",NA,NA,"MONVALLE",45.8581,8.63088
6426214,"magazziniere/magazziniera;Carrellista/Mulettista","commesso di punto vendita/shop assistant;Responsabile punto vendita/filiale","Magazzino","Orientamento alla qualità;Comunicazione;Adattabilità al cambiamento","B",NA,"Inglese","TELGATE",45.6289,9.85166
4143596,"Montatore meccanico","Operaio Generico Metalmeccanico",NA,"Iniziativa;Adattabilità al cambiamento;Comunicazione","B","Economia aziendale",NA,"FABBRICO",44.8695,10.8116
2478542,NA,"addetto alla logistica/addetta alla logistica;Impiegato Ufficio Acquisti;centralinista telefonico/centralinista telefonica;operatore di call center/operatrice di call center;Impiegato Commerciale;Segretario amministrativo/ segretaria amministrativa;segretario/segretaria;assistente amministrativo","Contact Center;Fogli di calcolo / elettronici;Produzione;Progettazione / Disegno tecnico;Sistemi di Gestione ;Vendita;Contabilità;Progettazione multimediale;Acquisti;Segreteria;Magazzino","Comunicazione","B","Perito Tessile","Italiano;Inglese","BREGNANO",45.6978,9.05934
2174406,"Capo turno;Operaio Generico","disegnatore meccanico/disegnatrice meccanica;attrezzista meccanico/attrezzista meccanica;Impiegato ufficio tecnico;manutentore;Programmatore PLC","Progettazione;Progettazione / Disegno tecnico;Produzione;Meccanica","Comunicazione","B",NA,"Italiano;Altro","LANZO TORINESE",45.2734,7.47961
1704019,NA,"gommista;magazziniere/magazziniera;Verniciatore;Carrellista/Mulettista;carrozziere","Trasporti;Browser per Internet;Edilizia;Magazzino;Stampaggio;Meccanica;Sistemi Operativi;Verniciatura",NA,"B","Operatore meccanico","Italiano;Spagnolo;Inglese","GIAVENO",45.047,7.34922
1946523,"Operaio Generico Metalmeccanico;Operaio Generico","muratore in mattoni;idraulico;magazziniere/magazziniera;Operaio Generico Metalmeccanico","Magazzino;Sicurezza / Qualità;Ceramica;Sistemi Operativi;Produzione","Adattabilità al cambiamento;Comunicazione","B","Licenza media","Inglese;Italiano;Altro","ALMENNO SAN SALVATORE",45.7502,9.59625
1734624,"addetto carico/scarico;Carrellista/Mulettista;magazziniere/magazziniera","magazziniere/magazziniera;Operaio Generico Metalmeccanico;Operatore su Stampi;Carrellista/Mulettista","Produzione;Word Processor - Elaborazione testi;Gomma Plastica",NA,"B","Licenza media","Italiano","VARESE",45.8291,8.82193
803146,"Operaio Generico Metalmeccanico;Operaio Generico","Operaio Generico Metalmeccanico","Assistenza;Sala;Produzione","Comunicazione","B","Operatore sala-bar","Altro;Italiano","GERMAGNANO",45.2639,7.46951
4606901,"addetto agli scaffali/addetta agli scafali","Impiegato Commerciale Estero (Import - Export);Capo Reparto grande distribuzione organizzata",NA,"Comunicazione","B","Perito delle Costruzioni, Ambiente e Territorio","Inglese;Italiano;Altro;Arabo","REGGIO NELL'EMILIA",44.6982,10.6313
1280885,"Operaio Generico Metalmeccanico;Montatore meccanico","muratore in mattoni;idraulico;magazziniere/magazziniera;pittore edile/pittrice edile;Operaio Generico Metalmeccanico","Magazzino","Orientamento al cliente;Comunicazione","B","Giardiniere","Italiano","PUEGNAGO SUL GARDA",45.5668,10.5098
1984417,"Operaio Generico;Carrellista/Mulettista","Carrellista/Mulettista;Operaio Generico Gomma/Plastica","Magazzino;Vendita;Produzione;Trasporti","Comunicazione","CQC Persone;CE;CQC Merci;B;C;D",NA,"Inglese;Italiano","PALAZZOLO SULL'OGLIO",45.6037,9.89716
5745217,"operatore di macchine CNC/operatrice di macchine CNC","Operaio Generico Metalmeccanico",NA,NA,NA,"Operatore macchine utensili",NA,"RONCADELLE",45.5272,10.1541
706832,NA,"addetto controllo qualità prodotti;Operaio Generico Elettronico/ Elettrotecnico;Back Office Commerciale;Preventivista;Addetto all'evasione degli ordini (m/f);Commesso di supermercato (m/f);Operaio Generico Metalmeccanico;Analista di tempi e metodi;Responsabile Programmazione della produzione","Posta elettronica/Messaggistica;Sicurezza / Qualità;Tessile;Fogli di calcolo / elettronici;Produzione;Word Processor - Elaborazione testi;Sistemi Operativi;Grafici e Presentazioni","Comunicazione;Orientamento alla qualità","B","Istituto magistrale pedagogico sociale","Inglese;Italiano","GAMBARA",45.2553,10.2935
1206761,"commesso di punto vendita/shop assistant;magazziniere/magazziniera;addetto carico/scarico;Operaio Generico Manifatturiero","addetto controllo qualità prodotti;magazziniere/magazziniera;Operaio Generico Metalmeccanico;addetto carico/scarico;Operaio Generico Manifatturiero;commesso di punto vendita/shop assistant;Addetto alla pompa di benzina / benzinaio","Grafici e Presentazioni;Magazzino;Word Processor - Elaborazione testi;Produzione;Fogli di calcolo / elettronici;Metalmeccanico;Progettazione / Disegno tecnico;Vendita","Comunicazione;Iniziativa;Adattabilità al cambiamento","B;Altro","Licenza media","Italiano;Inglese","MONCALIERI",44.9963,7.69032
1601476,"Operaio Generico Chimico/Farmaceutico;Operaio Generico Gomma/Plastica","Operaio Generico Metalmeccanico;Addetto al Reparto Sterile Settore Farmaceutico;Addetto al Confezionamento Farmaceutico;Operaio Generico Alimentare;Operaio Generico Chimico/Farmaceutico","Magazzino;Database;Applicazioni;Produzione","Orientamento alla qualità","B","ITS Settore Gomma-plastica","Russo","ANZIO",41.4475,12.6271
5765551,NA,"segretario/segretaria;addetto al ricevimento /addetta al ricevimento (settore alberghiero)",NA,NA,NA,"Economia aziendale","Inglese;Italiano;Spagnolo","REGGIO NELL'EMILIA",44.6982,10.6313
4233017,NA,"Operaio Generico Alimentare;magazziniere/magazziniera;Operaio Generico Metalmeccanico","Sala;Cucina;Word Processor - Elaborazione testi","Comunicazione","B","Tecnico dei servizi per l'enogastronomia e l'ospitalità alberghiera","Inglese;Italiano","VENARIA REALE",45.1239,7.63542
2303763,NA,"Operaio Generico Calzaturiero;Addetto Mensa;Cameriere ai Piani;addetto alle pulizie;pasticcere/pasticcera",NA,"Comunicazione","B","Panificatore, pasticcere",NA,"TORINO",45.0705,7.68682
634151,NA,"Operaio Generico Alimentare;Operaio Generico Metalmeccanico;Operaio Generico Trasporti/Logistica;Responsabile manutenzione","Posta elettronica/Messaggistica;Browser per Internet;Sistemi Operativi;Magazzino;Fogli di calcolo / elettronici;Progettazione","Comunicazione","B","Perito in Elettronica ed Elettrotecnica","Inglese;Italiano","FOGGIA",41.4609,15.5492
5051664,"tecnico di laboratorio scientifico","Operaio Generico Chimico/Farmaceutico;Responsabile Vendite;Biologo;Cameriere;addetto controllo qualità prodotti",NA,"Comunicazione","B","Scienze biologiche / Biologia (LM-6)",NA,"BUSSI SUL TIRINO",42.213,13.8262
65708,"Operaio Generico Automotive","manutentore;addetto carico/scarico;magazziniere/magazziniera;operatore di macchine CNC/operatrice di macchine CNC;Operaio Generico Metalmeccanico","Magazzino;Fogli di calcolo / elettronici;Metalmeccanico;Vendita;Word Processor - Elaborazione testi;Macchine utensili","Comunicazione;Team Working;Adattabilità al cambiamento;Problem solving e analisi;Orientamento alla qualità","Altro;Patentino Piattaforme da Lavoro Elevabili;B",NA,"Italiano","MONCALIERI",44.9963,7.69032
4930290,NA,"Operaio Generico Metalmeccanico;commesso di punto vendita/shop assistant;addetto al ricevimento/addetta al ricevimento",NA,NA,"B","Tecnico dei servizi turistici",NA,"PINEROLO",44.8833,7.35
5153467,"addetto alle pulizie","Segretario amministrativo/ segretaria amministrativa;supervisore alle casse;addetto alle pulizie;Operaio Generico Alimentare;segretario/segretaria","Contabilità;Word Processor - Elaborazione testi;Grafici e Presentazioni;Contact Center;Magazzino;Segreteria;Vendita;Fogli di calcolo / elettronici",NA,"B","Operatore meccanico odontotecnico",NA,"TORINO",45.0705,7.68682
5850824,"Elettricista di bordo (m/f);Operaio Generico Calzaturiero;manutentore;Operaio Generico Chimico/Farmaceutico;Operaio Generico Alimentare","elettricista;Operaio Generico Metalmeccanico","Assistenza tecnica;Elettrica / Elettrotecnica;Magazzino","Orientamento alla qualità;Comunicazione;Problem solving e analisi",NA,"Operatore elettrico","Inglese","MONTICHIARI",45.4152,10.3907
1792284,NA,"addetto agli scaffali/addetta agli scafali;muratore in mattoni;magazziniere/magazziniera;Operaio Generico Metalmeccanico;cassiere/cassiera;operaio manovale industriale/operaia manovale industriale","Magazzino;Metalmeccanico;Meccanica;Edilizia;Grande distribuzione;Macchine utensili;Verniciatura;Produzione","Comunicazione",NA,"Licenza media","Italiano;Altro;Inglese","TORINO",45.0705,7.68682
7037357,NA,"Operaio Generico Metalmeccanico;operatore di macchine CNC/operatrice di macchine CNC",NA,"Iniziativa;Gestione delle risorse;Comunicazione",NA,NA,NA,"BRESCIA",45.5248,10.2273
6454948,"magazziniere/magazziniera","addetto agli scaffali/addetta agli scafali",NA,NA,NA,NA,NA,"CORTENUOVA",45.539,9.78786
7047741,"Operaio Generico Chimico/Farmaceutico","Operaio Generico Chimico/Farmaceutico","Produzione","Comunicazione","B",NA,NA,"PALOMONTE",40.6625,15.2919
3488761,NA,"fattorino/fattorina;magazziniere/magazziniera;Operaio Generico Metalmeccanico;addetto all'inventario;Carrellista/Mulettista;operatore data entry/operatrice data entry","Fogli di calcolo / elettronici;Word Processor - Elaborazione testi;Grafici e Presentazioni",NA,"B","Dottorato di Ricerca indirizzo Umanistico/Sociale;Sociologia / Sociologia e ricerca sociale (LM-88);Storia","Cinese;Inglese;Altro;Spagnolo","TREVISO",45.6667,12.245
625681,NA,"Addetto Fast Food;addetto al ricevimento/addetta al ricevimento","Sala;Vendita",NA,"B","Tecnico della gestione aziendale (ex Analista Contabile)","Inglese;Italiano","TORINO",45.0705,7.68682
4325632,"Operaio Generico Chimico/Farmaceutico","addetto alla lavorazione dei metalli",NA,NA,NA,NA,NA,"ROVERETO",45.8896,11.0387
355379,"Operaio Generico Trasporti/Logistica;Operaio Generico;magazziniere/magazziniera;Operaio Generico Metalmeccanico;Operatore su macchine automatiche/semiautomatiche","magazziniere/magazziniera;Operaio Generico Metalmeccanico","Magazzino;Meccanica;Produzione;Macchine utensili;Vendita","Orientamento digitale;Comunicazione;Adattabilità al cambiamento;Team Working;Gestione dei cambiamenti;Orientamento alla qualità;Problem solving e analisi","B;A","Licenza media;Operatore macchine utensili","Inglese","VILLA CARCINA",45.6294,10.1965
4753751,"Operaio Generico Alimentare","commesso di punto vendita/shop assistant;Magazziniere con funzioni di vendita;addetto agli scaffali/addetta agli scafali;Carrellista/Mulettista;magazziniere/magazziniera","Magazzino","Orientamento al risultato;Orientamento alla qualità;Team Working","Altro;Patentino Piattaforme da Lavoro Elevabili;B","Perito dei Trasporti e della Logistica",NA,"ROGENO",45.7824,9.27404
3287816,"Impiegato ufficio tecnico;disegnatore meccanico/disegnatrice meccanica","addetto controllo qualità prodotti;operatore fresatrice CNC;Impiegato ufficio tecnico",NA,NA,"B","Perito per la meccanica","Italiano","COCCAGLIO",45.5646,9.97426
947989,"Operaio Generico Metalmeccanico;Operaio Generico","Capo officina meccanica;manutentore;Montatore meccanico","Produzione;Meccanica;Posta elettronica/Messaggistica","Orientamento alla qualità;Problem solving e analisi;Team Working","B",NA,"Inglese","CICONIO",45.3302,7.75852
5220432,"magazziniere/magazziniera","magazziniere/magazziniera;Operaio Generico Metalmeccanico",NA,NA,NA,NA,NA,"BRESCIA",45.5248,10.2273
2902118,"Operaio Generico Trasporti/Logistica","addetto alla logistica/addetta alla logistica;cassiere/cassiera;direttore di supermercato/direttrice di supermercato;Agente-rappresentante di commercio Monomandatario;magazziniere/magazziniera;Commerciale B2B;Magazziniere con funzioni di vendita;Addetto Mensa;commesso di punto vendita/shop assistant;animatore/animatrice","Browser per Internet;Posta elettronica/Messaggistica;Magazzino;Vendita;Word Processor - Elaborazione testi",NA,"A;B","Ragioniere programmatore","Inglese","ROMA",41.8947,12.4839
6232864,NA,"addetto alle pulizie",NA,"Adattabilità al cambiamento",NA,NA,NA,"PARMA",44.8027,10.329
686428,NA,"addetto alle pulizie","Igiene / Pulizia;Piani","Orientamento alla qualità;Adattabilità al cambiamento",NA,NA,NA,"BORGARO TORINESE",45.1483,7.65672
7014191,NA,"magazziniere/magazziniera",NA,"Comunicazione",NA,NA,NA,"GIULIANOVA",42.7612,13.9537
558819,"magazziniere/magazziniera;Operaio Generico Trasporti/Logistica","Operaio Generico Alimentare;magazziniere/magazziniera;Operaio Generico Metalmeccanico","Fogli di calcolo / elettronici;Vendita;Word Processor - Elaborazione testi;Posta elettronica/Messaggistica;Magazzino","Comunicazione;Gestione dei cambiamenti","A;B","Operatore d'ufficio","Inglese;Italiano","BARIANO",45.5126,9.70366
6016478,"magazziniere/magazziniera","magazziniere/magazziniera;Operaio Generico Servizi/Terziario",NA,NA,NA,NA,NA,"PIOSSASCO",44.9905,7.46372
7007243,"manutentore","operaio manovale industriale/operaia manovale industriale;Addetto alla manutenzione elettrica (m/f)",NA,"Iniziativa;Comunicazione",NA,NA,NA,"NOVI LIGURE",44.7608,8.78955
455143,"addetto alle pulizie","commesso di punto vendita/shop assistant;addetto agli scaffali/addetta agli scafali;addetto alle pulizie;centralinista telefonico/centralinista telefonica;Operaio Generico Metalmeccanico","Igiene / Pulizia;Piani;Produzione","Adattabilità al cambiamento;Orientamento alla qualità","B",NA,"Altro;Inglese","CASTIGLIONE DELLE STIVIERE",45.3906,10.4853
1510660,NA,"Segretario amministrativo/ segretaria amministrativa","Amministrazione del personale;Controllo Di Gestione / Revisione / Bilancio;Sistemi Operativi;Contabilità","Comunicazione","B","Ragioneria","Inglese;Italiano;Altro","FROSSASCO",44.933,7.35002
6325841,NA,"Operaio Generico Metalmeccanico",NA,"Comunicazione;Decision Making;Adattabilità al cambiamento;Gestione dei cambiamenti;Iniziativa;Orientamento al cliente;Gestione delle risorse;Orientamento al risultato",NA,NA,NA,"BARBARIGA",45.4051,10.0544
6575862,NA,"Operaio Generico Metalmeccanico",NA,"Comunicazione",NA,NA,NA,"CASALEONE",45.1738,11.1943
5194758,"assemblatore elettronico/assemblatrice elettronica;Montatore meccanico","addetto alla lavorazione dei metalli",NA,"Comunicazione",NA,NA,NA,"REGGIO NELL'EMILIA",44.6982,10.6313
2987314,"Operatore Unico Aeroportuale;Autista;magazziniere/magazziniera;Handler - Magazziniere di aeroporto","addetto alle spedizioni merci;Banconista;magazziniere/magazziniera;Operaio Generico Alimentare;restauratore d'arte/restauratrice d'arte;Order Entry / Impiegato Customer Service;Carrellista/Mulettista;impiegato di magazzino","Alimentare;Produzione;Ceramica;Trasporti;Magazzino","Gestione delle risorse;Spirito Imprenditoriale","B","Liceo scientifico;Diploma in scultura","Italiano;Inglese","TAINO",45.7625,8.61654
2471036,"Operaio Generico Metalmeccanico;Operaio Generico","magazziniere/magazziniera;Magazziniere con funzioni di vendita;Operaio Generico Metalmeccanico","Metalmeccanico;Produzione;Igiene / Pulizia;Magazzino;Strumenti e utensili;Vendita","Comunicazione","B","Licenza media","Italiano","SCALENGHE",44.8917,7.49252
5548778,NA,"responsabile degli acquisti;Segretario amministrativo/ segretaria amministrativa;responsabile della comunicazione","Animazione e sport;Marketing/Comunicazione;Progettazione / Disegno tecnico;Legale",NA,"B","Giurisprudenza (LMG/01)","Inglese","CASTELFRANCO EMILIA",44.5958,11.052
674174,"Operaio Generico;magazziniere/magazziniera;Operaio Generico Gomma/Plastica;Operaio Generico Metalmeccanico","Operaio Generico Gomma/Plastica;Operaio Generico Metalmeccanico;Operaio specializzato tessile;commesso di punto vendita/shop assistant","Altro;Vendita;Produzione;Magazzino;Acquisti","Comunicazione;Decision Making;Orientamento alla qualità","B",NA,"Italiano","FLERO",45.4826,10.1735
6680120,NA,"Operaio Generico Metalmeccanico",NA,"Adattabilità al cambiamento",NA,NA,NA,"VEROLANUOVA",45.3282,10.0759
5877791,"Impiegato ufficio tecnico;Operaio Generico Metalmeccanico","Operaio Generico Metalmeccanico;addetto controllo qualità prodotti;operatore di macchine CNC/operatrice di macchine CNC",NA,NA,NA,NA,NA,"BRESCIA",45.5248,10.2273
6167354,"Operaio Generico Chimico/Farmaceutico","Operaio Generico Chimico/Farmaceutico","Produzione;Sicurezza / Qualità","Comunicazione",NA,NA,NA,"ARCORE",45.6267,9.32555
2830661,"assistente amministrativo;Document Controller","Cameriere;addetto alla logistica/addetta alla logistica;commesso di punto vendita/shop assistant;Operatore customer service multicanale (sms, web meeting, telefono, mail);Promoter;addetto alle spedizioni merci;operatore data entry/operatrice data entry","Segreteria;Vendita;Word Processor - Elaborazione testi;Fogli di calcolo / elettronici;Browser per Internet;Database;Posta elettronica/Messaggistica;Sistemi Operativi","Iniziativa;Orientamento al risultato;Adattabilità al cambiamento;Comunicazione","B","Tecnico delle industrie elettroniche","Inglese","RHO",45.5309,9.04014
3133858,"Operaio Generico","responsabile del controllo qualità;disegnatore meccanico/disegnatrice meccanica;operatore di macchine CNC/operatrice di macchine CNC","Contact Center;Progettazione / Disegno tecnico;Magazzino;Produzione",NA,"B","Perito per la meccanica","Inglese","BRESCIA",45.5248,10.2273
4828819,NA,"addetto all'amministrazione del personale",NA,NA,NA,NA,NA,"MEDESANO",44.7576,10.1398
7379593,NA,"Operaio Generico Metalmeccanico",NA,"Comunicazione;Adattabilità al cambiamento;Iniziativa",NA,NA,NA,"TRICARICO",40.6176,16.1465
5784884,NA,"impiegato di assicurazione/impiegata di assicurazione","Posta elettronica/Messaggistica;Segreteria;Grafici e Presentazioni;Vendita;Fogli di calcolo / elettronici;Magazzino;Word Processor - Elaborazione testi",NA,"B","Tecnico della gestione aziendale (ex Analista Contabile);Operatore della gestione aziendale (ex Segretaria d'azienda)","Inglese;Spagnolo","REGGIO NELL'EMILIA",44.6982,10.6313
322719,"Operaio Generico;Operaio Generico Metalmeccanico","Operaio Generico Metalmeccanico","Word Processor - Elaborazione testi",NA,NA,"Licenza media","Italiano","GUSSAGO",45.5836,10.1572
5883294,"operatore di macchine CNC/operatrice di macchine CNC","Tecnico meccanico, elettronico, elettrotecnico, microelettronico, elettrico",NA,NA,NA,NA,NA,"MONTECHIARUGOLO",44.6933,10.4222
6292864,NA,"manutentore;responsabile del controllo qualità;Operaio Generico Metalmeccanico;addetto controllo qualità prodotti","Database;Sicurezza / Qualità;Fogli di calcolo / elettronici;Produzione","Problem solving e analisi;Comunicazione;Decision Making;Orientamento alla qualità;Orientamento al cliente","B",NA,"Inglese","GOTTOLENGO",45.2919,10.2724
2701600,"Giardiniere/floricoltore/serrista/vivaista;raccoglitore di frutta e ortaggi/raccoglitrice di frutta e ortaggi","Segretario amministrativo/ segretaria amministrativa;Operaio Generico Metalmeccanico","Cucina;Sala","Decision Making;Orientamento al cliente","B","Ragioneria","Inglese;Altro","CAERANO DI SAN MARCO",45.7852,12.0028
6474858,"Operaio Generico Metalmeccanico","Operaio Generico Metalmeccanico",NA,"Iniziativa;Comunicazione;Decision Making",NA,NA,NA,"CALCINATO",45.4572,10.4136
5209855,"Autista","direttore commerciale/direttrice commerciale;Impiegato Commerciale;Autista;Tecnico di cantiere","Legale;Segreteria;Elettrica / Elettrotecnica;Vendita;Edilizia",NA,"B;CQC Merci;C;CE;A","Altro","Inglese;Italiano","POIRINO",44.9208,7.84693
2996564,"Operaio Generico;Addetto al Confezionamento Farmaceutico;Operaio Generico Metalmeccanico","Grafico pubblicitario (m/f)","Segreteria;Posta elettronica/Messaggistica;Sistemi di Gestione ;Sistemi Operativi;Database;Magazzino;Marketing/Comunicazione;Produzione;Metalmeccanico","Iniziativa;Comunicazione","B",NA,"Italiano;Inglese","VIMERCATE",45.6119,9.36705
6360796,NA,"addetto alle pulizie",NA,NA,NA,NA,NA,"CANTU'",46.3958,11.1195
5689259,NA,"commesso di punto vendita/shop assistant",NA,NA,NA,NA,NA,"PISA",43.7155,10.3966
280572,"Stampatore Industriale;Operaio Generico;Operaio Generico Gomma/Plastica","Operaio Generico Metalmeccanico",NA,NA,"B",NA,NA,"COLOGNE",45.5814,9.94136
2764582,"magazziniere/magazziniera","Operaio Generico Metalmeccanico","Vendita;Magazzino;Produzione","Orientamento alla qualità;Problem solving e analisi;Team Working","B","Disegno Industriale / Design (LM-12);Liceo delle scienze umane","Inglese","LUMEZZANE",45.6479,10.2649
24238,NA,"Biologo;Operaio Generico Alimentare;addetto controllo qualità prodotti;Area Manager;magazziniere/magazziniera;tecnico sanitario di laboratorio biomedico","Posta elettronica/Messaggistica;Sistemi Operativi;Ulteriori competenze sanità;Farmaco-Scientifico;Magazzino;Vendita;Browser per Internet;Tecnica;Word Processor - Elaborazione testi","Adattabilità al cambiamento;Problem solving e analisi","B;A;Patentino Carrelli Elevatori/Muletti","Perito per l'elettrotecnica e l'automazione;Scienze biologiche / Biologia (LM-6)","Inglese","CARPENEDOLO",45.3645,10.4313
5061029,"Addetto Mensa","magazziniere/magazziniera",NA,"Comunicazione",NA,NA,NA,"NOVARA",45.4406,8.61684
6717921,NA,"Cucitore/Cucitrice",NA,"Comunicazione",NA,NA,NA,"PIACENZA",45.0468,9.69937
4523539,"operatore di macchine CNC/operatrice di macchine CNC;Operaio Generico Metalmeccanico","Autista;Operaio Generico Metalmeccanico",NA,"Comunicazione","B",NA,NA,"BRESCIA",45.5248,10.2273
209066,"magazziniere/magazziniera","Impiegato Commerciale","Posta elettronica/Messaggistica;Grafici e Presentazioni;Word Processor - Elaborazione testi;Magazzino","Comunicazione","B",NA,"Inglese;Altro","CHIVASSO",45.1894,7.88722
5848616,"Operaio Generico Metalmeccanico","Montatore meccanico;Operaio Generico Metalmeccanico",NA,"Adattabilità al cambiamento;Iniziativa;Comunicazione","B",NA,NA,"PESSANO CON BORNAGO",45.5494,9.38145
5047918,"Operaio Generico Cartotecnico/Grafico;Carrellista/Mulettista","magazziniere/magazziniera",NA,"Comunicazione","B","Tecnico dei servizi della ristorazione",NA,"NICHELINO",44.994,7.64182
3131158,"magazziniere/magazziniera","magazziniere/magazziniera;operatore di macchine CNC/operatrice di macchine CNC","Meccanica;Produzione;Saldatura;Macchine utensili","Orientamento alla qualità;Problem solving e analisi;Team Working",NA,NA,NA,"PALAZZOLO SULL'OGLIO",45.6037,9.89716
1622681,"Autista","Autista;Operaio Generico Metalmeccanico;macchinista ferroviario/macchinista ferroviaria","Trasporti","Comunicazione","B;C;A",NA,NA,"COLOGNE",45.5814,9.94136
1993032,"magazziniere/magazziniera","segretario/segretaria;operatore data entry/operatrice data entry;addetto alle spedizioni merci;magazziniere/magazziniera","Fogli di calcolo / elettronici;Word Processor - Elaborazione testi;Produzione;Sistemi di Gestione ;Sicurezza / Qualità","Gestione dei cambiamenti;Comunicazione","B","Ragioneria","Inglese;Altro","VIGNOLA",44.483,11.0048
7978714,NA,"addetto controllo qualità prodotti;Multi Categoria;Operaio Generico Tessile","Tessile","Comunicazione","B",NA,NA,"CASTEL GOFFREDO",45.2986,10.4754
6744038,NA,"Operaio Generico Alimentare;addetto alle pulizie;addetto carico/scarico",NA,"Decision Making;Iniziativa;Comunicazione","B",NA,"Italiano","SPOLTORE",42.4534,14.141
354677,NA,"addetto alla logistica/addetta alla logistica;Addetto al Confezionamento Farmaceutico;addetto controllo qualità prodotti;badante;responsabile del controllo qualità;addetto allo scalo aeroportuale;Addetto Mensa Scolastica;Addetto Mensa;commesso di punto vendita/shop assistant",NA,"Comunicazione","B","Licenza media;Centralinista su sistemi informatici;Operatore sala-bar",NA,"COMUN NUOVO",45.6227,9.65976
4021762,NA,"Operaio Generico Metalmeccanico","Elettrica / Elettrotecnica;Grande distribuzione;Assistenza tecnica;Macchine utensili;Meccanica","Decision Making;Orientamento alla qualità;Problem solving e analisi;Team Working;Iniziativa;Orientamento al cliente",NA,"Tecnico per la manutenzione e assistenza tecnica","Inglese","SUSA",45.1375,7.05461
7541398,NA,"Operatore Macchina Sbiancante (m/f)",NA,"Comunicazione",NA,NA,NA,"SAN GIOVANNI LUPATOTO",45.3879,11.038
2338621,"Operaio Generico Metalmeccanico;Operaio Generico Manifatturiero","Operaio Generico Metalmeccanico;cassiere/cassiera;commesso di punto vendita/shop assistant","Magazzino;Vendita;Produzione","Orientamento alla qualità;Comunicazione","B","Licenza media","Italiano;Inglese","SAN GERVASIO BRESCIANO",45.3074,10.1487
5892185,NA,"commesso di punto vendita/shop assistant",NA,NA,NA,NA,NA,"ZIBIDO SAN GIACOMO",45.3604,9.11119
101279,NA,"Impiegato Ufficio Acquisti;operatore di agenzia di viaggio/operatrice di agenzia di viaggio;barista;segretario/segretaria;Impiegato Commerciale Estero (Import - Export);Order Entry / Impiegato Customer Service;Segretario amministrativo/ segretaria amministrativa","Posta elettronica/Messaggistica;Fogli di calcolo / elettronici;Gestione alberghiera;Ricevimento;Grafici e Presentazioni;Contabilità","Orientamento alla qualità","B","Economia e amministrazione delle imprese;ITS Settore Turismo","Inglese;Altro;Spagnolo","ALA DI STURA",45.3152,7.30591
3398894,"Operaio Generico","tornitore CNC;Montatore meccanico;Operaio Generico Metalmeccanico;operatore di macchine CNC/operatrice di macchine CNC;muratore in mattoni;pittore edile/pittrice edile;operaio manovale industriale/operaia manovale industriale","Macchine utensili;Produzione;Meccanica;Edilizia;Trasporti","Comunicazione;Iniziativa","A;B",NA,NA,"PREVALLE",45.5514,10.4221
6250776,NA,"Addetto alle vendite nel reparto macelleria;Operaio Generico Aeronautico/Marittimo/Navale;gommista;Operaio Generico Metalmeccanico;idraulico",NA,"Comunicazione","B","Operatore sala-bar",NA,"AVIGLIANA",45.0771,7.39862
6508832,NA,"magazziniere/magazziniera;Operaio Generico Edile",NA,"Comunicazione",NA,NA,NA,"CARIGNANO",44.9069,7.67322
6204005,"addetto alle pulizie","commesso di punto vendita/shop assistant;addetto alle pulizie","Piani;Igiene / Pulizia","Orientamento alla qualità;Adattabilità al cambiamento","B",NA,NA,"ALESSANDRIA",44.9124,8.61894
1310089,"addetto alle pulizie","Impiegato Commerciale;addetto alle pulizie","Piani;Igiene / Pulizia","Orientamento alla qualità;Adattabilità al cambiamento",NA,NA,NA,"CASTELNUOVO BOCCA D'ADDA",45.1109,9.86367
2143825,"magazziniere/magazziniera;saldatore/saldatrice;Montatore meccanico;addetto alla lavorazione dei metalli;Operaio Generico","addetto carico/scarico;Operaio Generico Metalmeccanico;Operaio Generico Automotive;Operaio Generico Chimico/Farmaceutico;Montatore meccanico;Manovratore di carroponte;magazziniere/magazziniera;saldatore/saldatrice","Magazzino;Macchine utensili;Produzione;Saldatura;Browser per Internet;Meccanica","Iniziativa;Comunicazione;Adattabilità al cambiamento;Orientamento alla qualità","B;A","Installatore, manutentore impianti elettrici","Inglese;Italiano","SAN GIORGIO CANAVESE",45.3342,7.79682
6953915,NA,"Segretario amministrativo/ segretaria amministrativa",NA,"Comunicazione",NA,NA,NA,"PESCATE",45.8335,9.39394
1712261,"Operaio Generico Metalmeccanico;conduttore di robot industriali/conduttrice di robot industriali","operatore di macchine CNC/operatrice di macchine CNC;tornitore CNC","Produzione","Comunicazione","B",NA,"Italiano","CAPRIANO DEL COLLE",45.4748,10.1323
765710,NA,"Operatore customer service multicanale (sms, web meeting, telefono, mail);Segretario amministrativo/ segretaria amministrativa;Segretario/a commerciale/Marketing/Ufficio Vendite;assistente di marketing;Responsabile Organizzazione Eventi;commesso di punto vendita/shop assistant","Marketing/Comunicazione;Progettazione multimediale;Magazzino;Contact Center;Fogli di calcolo / elettronici;Grafici e Presentazioni;Segreteria","Comunicazione","B","Dirigente di comunità;Marketing e comunicazione d'azienda","Inglese","CREMA",45.3588,9.66826
4239000,NA,"pasticcere/pasticcera;Banconista","Vendita;Magazzino","Orientamento al cliente;Team Working;Comunicazione;Problem solving e analisi;Orientamento alla qualità;Adattabilità al cambiamento",NA,NA,"Inglese","BRA",44.703,7.85563
5869185,NA,"addetto carico/scarico;Operaio Generico Gomma/Plastica;addetto alle pulizie;agente di assicurazione",NA,NA,NA,NA,NA,"SETTIMO TORINESE",45.1403,7.76802
4603627,NA,"addetto all'amministrazione del personale;assistente amministrativo;segretario/segretaria",NA,"Comunicazione",NA,NA,NA,"TRIESTE",45.6486,13.78
6158457,"Stampatore Industriale","Operaio Generico Gomma/Plastica",NA,NA,NA,NA,NA,"ADRO",45.6179,9.96266
7399287,NA,"assistente amministrativo",NA,"Comunicazione;Decision Making;Adattabilità al cambiamento","B",NA,NA,"BARBARIGA",45.4051,10.0544
1618598,"magazziniere/magazziniera;Operaio Generico Metalmeccanico;Operaio Generico;Stampatore Industriale","Operaio Generico Gomma/Plastica;Operaio Generico Metalmeccanico","Produzione;Meccanica;Stampaggio;Gomma Plastica;Strumenti e utensili","Orientamento alla qualità;Team Working;Problem solving e analisi;Adattabilità al cambiamento","A","Licenza media","Italiano","PALAZZOLO SULL'OGLIO",45.6037,9.89716
2597966,NA,"Operaio Generico Chimico/Farmaceutico;Operaio Generico Edile;Operaio Generico Metalmeccanico","Magazzino;Produzione","Comunicazione","CE;B","Diploma in decorazione",NA,"TORINO",45.0705,7.68682
442011,"manutentore","manutentore;magazziniere/magazziniera;Operaio Generico Metalmeccanico","Macchine utensili;Word Processor - Elaborazione testi;Meccanica;Fogli di calcolo / elettronici;Assistenza tecnica;Elettrica / Elettrotecnica;Grande distribuzione;Sala","Comunicazione;Decision Making;Iniziativa;Problem solving e analisi;Orientamento alla qualità","B","Ragioneria","Inglese","SAREZZO",45.6617,10.196
4930988,"magazziniere/magazziniera;Operaio Generico Trasporti/Logistica","segretario/segretaria;assistente di marketing;operatore di agenzia di viaggio/operatrice di agenzia di viaggio",NA,NA,NA,NA,"Altro;Inglese;Italiano","SAN ROCCO AL PORTO",45.082,9.69716
6133420,NA,"Operaio Generico Metalmeccanico;Operaio Generico Gomma/Plastica",NA,"Comunicazione",NA,NA,NA,"VOLPIANO",45.2015,7.77822
316731,NA,"Operaio Generico Metalmeccanico;Responsabile punto vendita/filiale","Contact Center;Legale;Sicurezza;Vendita;Acquisti","Adattabilità al cambiamento","A;B;Altro","Ragioneria","Inglese","CASTENEDOLO",45.4695,10.2957
1401249,"Montatore meccanico;Operaio Generico;saldatore/saldatrice","saldatore/saldatrice",NA,"Comunicazione;Adattabilità al cambiamento",NA,NA,NA,"VENARIA REALE",45.1239,7.63542
7561468,NA,"Operaio Generico Chimico/Farmaceutico",NA,"Comunicazione","B",NA,NA,"GHEDI",45.4011,10.2793
4380763,"Operaio Generico Servizi/Terziario;magazziniere/magazziniera;Operaio Generico Metalmeccanico","addetto controllo qualità prodotti;magazziniere/magazziniera","Produzione;Saldatura;Posta elettronica/Messaggistica;Ceramica;Fogli di calcolo / elettronici;Word Processor - Elaborazione testi;Magazzino;Browser per Internet;Meccanica;Metalmeccanico;Grafici e Presentazioni","Adattabilità al cambiamento;Team Working;Decision Making;Problem solving e analisi;Orientamento alla qualità","A;B","Perito in Elettronica ed Elettrotecnica","Italiano","ISEO",45.6568,10.0528
6903448,NA,"Operaio Generico Metalmeccanico",NA,NA,NA,NA,NA,"PADERNO FRANCIACORTA",45.5879,10.0801
306118,NA,"Addetto al Reparto Sterile Settore Farmaceutico;Addetto al Confezionamento Farmaceutico;Operaio Generico Metalmeccanico","Edilizia;Produzione","Comunicazione","B","Perito chimico","Italiano;Inglese","BAGNARIA ARSA",45.7749,13.1696
5840232,NA,"Gastronomo",NA,"Orientamento al cliente",NA,NA,NA,"SAN MAURO TORINESE",45.1059,7.75452
1222538,"addetto alla lavorazione dei metalli;Operaio Generico Metalmeccanico","bagnino/bagnina;Operaio Generico Metalmeccanico;Giardiniere/floricoltore/serrista/vivaista","Sistemi Operativi;Produzione","Iniziativa;Comunicazione","B","Licenza media","Altro;Italiano","ALFIANELLO",45.267,10.1482
7449650,NA,"Responsabile manutenzione;Capo officina meccanica",NA,"Comunicazione",NA,NA,NA,"CASTELVETRO PIACENTINO",45.0993,9.98957
4407381,NA,"segretario/segretaria;Collaboratore Informatico Pubblica Amministrazione;segretario di studi legali","Segreteria;Word Processor - Elaborazione testi;Browser per Internet;Posta elettronica/Messaggistica",NA,"B","Tecnico dei servizi sociali","Inglese;Italiano","LECCO",45.8532,9.39005
1342885,"Operaio Generico;addetto controllo qualità prodotti","Operaio Generico Metalmeccanico;addetto alla lavorazione dei metalli","Word Processor - Elaborazione testi;Strumenti e utensili;Fogli di calcolo / elettronici;Produzione;Gomma Plastica;Meccanica;Stampaggio","Orientamento alla qualità","B","Operatore grafico pubblicitario","Inglese;Italiano","PALAZZOLO SULL'OGLIO",45.6037,9.89716
5661847,"operaio manovale industriale/operaia manovale industriale","Operaio Generico Metalmeccanico;ingegnere elettronico;Montatore meccanico;addetto all'inventario",NA,NA,"B","Operatore ai servizi di ristorazione","Altro;Inglese;Arabo;Italiano","CAVRIAGO",44.6937,10.5275
3489263,"Operaio Generico","addetto controllo qualità prodotti;Carrellista/Mulettista;addetto alle pulizie;Autista;magazziniere/magazziniera;elettricista;fattorino/fattorina","Magazzino;Produzione",NA,"B","Perito per l'elettronica e le telecomunicazioni","Altro;Inglese;Italiano","AVIGLIANA",45.0771,7.39862
5340303,"Operaio Generico Metalmeccanico","addetto controllo qualità prodotti;Operaio Generico Metalmeccanico",NA,"Adattabilità al cambiamento",NA,NA,NA,"GHEDI",45.4011,10.2793
7738083,NA,"Banconista",NA,"Comunicazione;Adattabilità al cambiamento","B","Tecnico dei servizi per l'enogastronomia e l'ospitalità alberghiera",NA,"MONTESILVANO",42.5039,14.138
933293,"commesso di punto vendita/shop assistant","addetto alle pulizie;operatore ecologico/operatrice ecologica;segretario/segretaria;Giardiniere/floricoltore/serrista/vivaista;Operaio Generico Metalmeccanico;Secondo/a Governante;Cameriere ai Piani","Contact Center;Grafici e Presentazioni;Browser per Internet;Grande distribuzione;Posta elettronica/Messaggistica;Segreteria;Contabilità;Fogli di calcolo / elettronici;Sistemi Operativi;Magazzino;Piani;Vendita","Comunicazione;Iniziativa","B","Liceo linguistico","Inglese;Altro;Tedesco","BERLINGO",45.503,10.0437
4363755,"operaio manovale industriale/operaia manovale industriale","magazziniere/magazziniera;Operaio Generico Metalmeccanico;Carrellista/Mulettista","Magazzino",NA,NA,NA,NA,"MONCALIERI",44.9963,7.69032
1313908,"Operaio Generico Chimico/Farmaceutico;Operaio Generico Automotive;Operaio Generico;Operaio Generico Metalmeccanico","assemblatore elettronico/assemblatrice elettronica;Operaio Generico Metalmeccanico;addetto alle pulizie;Operaio Generico Chimico/Farmaceutico","Produzione;Magazzino","Comunicazione","B","Tecnico dei servizi per l'enogastronomia e l'ospitalità alberghiera","Inglese;Altro","ALBIANO D'IVREA",45.433,7.95062
1151663,"elettricista","Addetto alla vendita in show room;Operaio Generico Gomma/Plastica;elettricista;Impiegato Commerciale","Elettrica / Elettrotecnica;Progettazione multimediale;Assistenza tecnica;Progettazione",NA,"B",NA,"Inglese","BRUSAPORTO",45.6714,9.76041
3432326,NA,"impiegato di magazzino;Operaio Generico Edile;commesso di punto vendita/shop assistant;Operaio Generico Metalmeccanico;Operaio Generico Cartotecnico/Grafico","Acquisti;Vendita;Calzaturiero;Cucina;Sala","Adattabilità al cambiamento;Comunicazione;Iniziativa;Orientamento al risultato","B","Liceo scientifico;Economia e amministrazione delle imprese","Inglese","VISANO",45.3184,10.3724
6467159,NA,"tecnico analista chimico;Operaio Generico Chimico/Farmaceutico",NA,"Comunicazione",NA,NA,NA,"CORSICO",45.431,9.11093
2616808,NA,"macchinista ferroviario/macchinista ferroviaria","Posta elettronica/Messaggistica","Comunicazione","A;B","Liceo scientifico","Inglese","VERONA",45.4342,10.9978
6919995,NA,"Sales Representative;fattorino/fattorina;ICT help desk agent;ICT help desk manager;IT service manager",NA,"Adattabilità al cambiamento;Comunicazione","B",NA,NA,"MACERATA",43.2982,13.4411
2327897,"Operaio Generico Automotive;magazziniere/magazziniera","magazziniere/magazziniera;Operaio Generico Metalmeccanico;addetto alle pulizie;Magazziniere con funzioni di vendita","Edilizia;Magazzino;Meccanica;Sistemi Operativi;Trasporti","Comunicazione",NA,"Operatore elettrico","Inglese","TORINO",45.0705,7.68682
6707076,"Impiegato Commerciale","Impiegato Commerciale;Impiegato Commerciale Estero (Import - Export)","Vendita","Adattabilità al cambiamento;Comunicazione",NA,NA,NA,"BRESCIA",45.5248,10.2273
1145365,NA,"magazziniere/magazziniera;impiegato di magazzino","Browser per Internet;Sistemi Operativi;Magazzino;Fogli di calcolo / elettronici;Database;Posta elettronica/Messaggistica","Comunicazione","B","Perito dei Trasporti e della Logistica","Altro;Italiano;Inglese","FIDENZA",44.864,10.0667
5019092,"Operaio Generico Metalmeccanico;operatore di macchine CNC/operatrice di macchine CNC","addetto alla lavorazione dei metalli",NA,"Comunicazione",NA,NA,NA,"BRESCIA",45.5248,10.2273
4898249,NA,"Operaio Generico Alimentare;estetista;Beauty consultant","Browser per Internet",NA,NA,"Estetista","Italiano;Russo;Altro","BORGO VALSUGANA",46.0514,11.4544
5701395,NA,"Operaio Generico Manifatturiero;Operaio Generico Metalmeccanico",NA,NA,NA,NA,NA,"ESINE",45.9257,10.2509
4587830,NA,"Impiegato Commerciale Estero (Import - Export);Operatore customer service multicanale (sms, web meeting, telefono, mail);Back Office Commerciale","Acquisti;Vendita;Word Processor - Elaborazione testi;Fogli di calcolo / elettronici;Progettazione / Disegno tecnico;Browser per Internet;Segreteria;Grafici e Presentazioni","Pianificazione e organizzazione;Orientamento al cliente;Problem solving e analisi;Comunicazione;Orientamento alla qualità","B","Traduzione Specialistica e interpretariato (LM-94)","Spagnolo;Tedesco;Inglese;Altro","OMEGNA",45.8798,8.40802
4714794,NA,"Operaio Generico Metalmeccanico;Operaio Generico Alimentare",NA,"Comunicazione",NA,NA,NA,"BRESCIA",45.5248,10.2273
6348948,NA,"commesso di punto vendita/shop assistant",NA,NA,NA,NA,NA,"LATINA",41.4654,12.8982
1187870,"Operaio Generico;Operaio Generico Edile","magazziniere/magazziniera;Carrellista/Mulettista;Operaio Generico Chimico/Farmaceutico;Operaio Generico Metalmeccanico","Sala;Cucina;Magazzino;Vendita","Orientamento al risultato;Team Working;Orientamento alla qualità;Problem solving e analisi","B;Altro;Patentino Piattaforme da Lavoro Elevabili","Licenza media","Altro;Italiano;Inglese","CADELBOSCO DI SOPRA",44.7622,10.5959
6276664,NA,"operatore ecologico/operatrice ecologica",NA,NA,NA,NA,NA,"PENNE",42.4538,13.9299
7574292,NA,"Funzionario giuridico (m/f)",NA,"Comunicazione",NA,NA,NA,"CASTEL SAN GIORGIO",40.7837,14.6988
3354968,NA,"segretario di studi legali;Back office ufficio fidi;Back Office Commerciale;Impiegato Ufficio Acquisti;addetto al ricevimento/addetta al ricevimento;impiegato di assicurazione/impiegata di assicurazione",NA,NA,"B","Perito aziendale e corrispondente in lingue estere","Inglese;Russo;Tedesco","BRESCIA",45.5248,10.2273
5603596,NA,"operatore di macchine CNC/operatrice di macchine CNC;Operaio Generico Metalmeccanico",NA,"Comunicazione;Adattabilità al cambiamento",NA,NA,NA,"CADELBOSCO DI SOPRA",44.7622,10.5959
5084810,NA,"assistente di direzione",NA,"Orientamento al cliente",NA,NA,NA,"FIUMICINO",41.7675,12.2291
6251546,NA,"Collaboratore Informatico Pubblica Amministrazione",NA,NA,NA,NA,NA,"TRENTO",46.0679,11.1211
7399990,NA,"Produzione (altro) (m/f)",NA,"Comunicazione","B","Liceo classico","Italiano","MAIRANO",45.4492,10.0796
4264581,NA,"raccoglitore di frutta e ortaggi/raccoglitrice di frutta e ortaggi;Operaio Generico Metalmeccanico;addetto alle pulizie;Operaio Generico Alimentare;barista","Cucina;Sala;Igiene / Pulizia;Browser per Internet",NA,"B",NA,"Inglese","SCALENGHE",44.8917,7.49252
1663250,"Operaio Generico;Operaio Generico Cartotecnico/Grafico;Operaio Generico Gomma/Plastica","Operaio Generico Metalmeccanico","Produzione","Adattabilità al cambiamento",NA,NA,NA,"CANNETO SULL'OGLIO",45.1527,10.3809
7107054,NA,"Operaio Generico Metalmeccanico",NA,"Adattabilità al cambiamento;Comunicazione",NA,NA,NA,"CASALEONE",45.1738,11.1943
3330390,"elettricista;Tecnico meccanico, elettronico, elettrotecnico, microelettronico, elettrico;montatore di quadri elettrici/montatrice di quadri elettrici","elettricista","Assistenza tecnica;Elettrica / Elettrotecnica;Posta elettronica/Messaggistica;Progettazione","Iniziativa;Orientamento alla qualità","A;B","Operatore elettrico","Inglese","VARESE",45.8291,8.82193
2421173,"Autista","Impiegato Commerciale;Autista;Operaio Generico Metalmeccanico","Contact Center","Comunicazione","A;D;Altro;B;CQC Persone",NA,NA,"CASTEL DI LAMA",42.8643,13.7193
6308341,"Operaio Generico Chimico/Farmaceutico","Operaio Generico Chimico/Farmaceutico","Sicurezza / Qualità;Produzione","Comunicazione",NA,NA,NA,"LESMO",45.6486,9.30735
5868813,"Operaio Generico Metalmeccanico","Operaio Generico Manifatturiero",NA,"Comunicazione",NA,NA,NA,"VEROLAVECCHIA",45.3271,10.0572
7407676,NA,"magazziniere/magazziniera;Multi Categoria","Vendita","Comunicazione;Problem solving e analisi;Spirito Imprenditoriale","Altro","Perito in Amministrazione, Finanza e Marketing","Altro;Inglese;Spagnolo","SUELLO",45.8168,9.31154
2321480,"Operaio Generico Tessile;Operaio Generico Servizi/Terziario;Carrellista/Mulettista;Operaio Generico Cartotecnico/Grafico;Operaio Generico Manifatturiero;Cucitore/Cucitrice;Operaio Generico;Operaio Generico Commercio/Retail;Stampatore Industriale","magazziniere/magazziniera;Impiegato Ufficio Acquisti;addetto alla lavorazione dei metalli;assemblatore elettronico/assemblatrice elettronica;Operaio Generico Alimentare","Sistemi Operativi;Produzione;Browser per Internet;Magazzino","Comunicazione;Team Working;Orientamento alla qualità;Pianificazione e organizzazione","B;Altro;A","Perito per l'elettrotecnica e l'automazione","Inglese;Italiano","MERONE",45.7872,9.24404
2759674,NA,"Cameriere;magazziniere/magazziniera;barista;Operaio Generico Metalmeccanico;Operatore Unico Aeroportuale;assistente di cucina","Progettazione / Disegno tecnico","Comunicazione","Altro;B",NA,"Italiano","LEGNANO",45.596,8.90784
5147691,"Operaio Generico Metalmeccanico;Operaio Generico Trasporti/Logistica","magazziniere/magazziniera",NA,NA,"B","Operatore della gestione aziendale (ex Segretaria d'azienda)",NA,"OSPITALETTO",45.1333,10.6
2936107,"assemblatore elettronico/assemblatrice elettronica;Operaio Generico Gomma/Plastica","Operaio Generico Metalmeccanico","Elettrica / Elettrotecnica;Produzione;R&D;Saldatura","Adattabilità al cambiamento","B","Licenza media","Inglese","ROVELLO PORRO",45.6551,9.04044
5936329,NA,"addetto alle spedizioni merci;responsabile import-export;responsabile della logistica;responsabile di magazzino",NA,"Team Working","B","Scienze Politiche e delle Relazioni Internazionali (L-36);Perito in informatica","Inglese;Altro","ROMA",41.8947,12.4839
5621798,NA,"Impiegato ufficio tecnico",NA,"Adattabilità al cambiamento",NA,NA,NA,"FIGLINE E INCISA VALDARNO",43.6206,11.4703
1492004,"magazziniere/magazziniera;Operaio Generico Gomma/Plastica","Operaio Generico Gomma/Plastica;Operaio Generico Metalmeccanico;Operatore Unico Aeroportuale;Operaio Generico Trasporti/Logistica;magazziniere/magazziniera","Produzione;Magazzino","Adattabilità al cambiamento;Iniziativa;Comunicazione;Decision Making;Orientamento al risultato","B","Licenza media","Inglese;Italiano","CAMERI",45.5033,8.66284
2237321,NA,"consulente di viaggio;Back Office Commerciale;Responsabile Customer Service;Impiegato Commerciale Estero (Import - Export);addetto al ricevimento /addetta al ricevimento (settore alberghiero);interprete","Gestione alberghiera;Marketing/Comunicazione;Acquisti;Sistemi di Gestione ",NA,"B","Linguistica (LM-39)","Russo;Inglese;Altro","BRESCIA",45.5248,10.2273
256610,NA,"commesso di punto vendita/shop assistant;Controller - Controllo di Gestione;cassiere/cassiera","Word Processor - Elaborazione testi;Browser per Internet;Vendita","Adattabilità al cambiamento","B",NA,"Inglese","LIVORNO",43.5426,10.316
5176880,NA,"Impiegato ufficio tecnico;contabile clienti",NA,NA,NA,NA,NA,"NONE",44.9331,7.54012
5861672,NA,"Operaio Generico Metalmeccanico;Operaio Generico Agricoltura/Ambiente/Allevamento;hostess / steward di terra;magazziniere/magazziniera",NA,NA,NA,NA,NA,"MARANO TICINO",45.6299,8.63163
5157380,NA,"Operaio Generico Automotive",NA,NA,NA,NA,NA,"RIVALTA DI TORINO",45.034,7.51842
3471334,"Operaio Generico Trasporti/Logistica","magazziniere/magazziniera;Operaio Generico Metalmeccanico;Autista","Sistemi Operativi;Produzione;Browser per Internet",NA,"B","Operatore elettrico","Inglese;Italiano","TORINO",45.0705,7.68682
3397939,"magazziniere/magazziniera;Operaio Generico Alimentare","addetto alle pulizie;Operaio Generico Metalmeccanico;Operaio Generico Chimico/Farmaceutico",NA,"Adattabilità al cambiamento;Comunicazione;Pianificazione e organizzazione;Iniziativa",NA,"Licenza media","Italiano","SUISIO",45.6571,9.50225
1977920,"Operaio Generico Metalmeccanico","Tecnico meccanico, elettronico, elettrotecnico, microelettronico, elettrico",NA,"Comunicazione","B",NA,NA,"SANTENA",44.9462,7.77303
5436197,"Operaio Generico Metalmeccanico","Operaio Generico Metalmeccanico",NA,NA,NA,NA,NA,"RONCADELLE",45.5272,10.1541
7682305,NA,"commesso di punto vendita/shop assistant",NA,"Adattabilità al cambiamento",NA,NA,NA,"FIRENZE",43.7667,11.25
6092778,NA,"Operaio Generico Metalmeccanico","Browser per Internet;Produzione;Magazzino",NA,"B","Operatore elettronico industriale","Inglese","PIANEZZA",45.1059,7.54342
4370847,NA,"operatore fresatrice CNC;Operaio Generico Metalmeccanico","Magazzino;Vendita","Orientamento alla qualità;Problem solving e analisi;Team Working","B",NA,"Inglese","LUMEZZANE",45.6479,10.2649
3571418,"montatore elettromeccanico/montatrice elettromeccanica","segretario/segretaria;cassiere/cassiera;Responsabile Vendite;Operaio Generico Metalmeccanico","Fogli di calcolo / elettronici;Word Processor - Elaborazione testi;Contabilità;Vendita","Adattabilità al cambiamento","B","Istituto magistrale pedagogico sociale","Inglese","REGGIO NELL'EMILIA",44.6982,10.6313
5490275,"Operaio Generico Chimico/Farmaceutico","magazziniere/magazziniera;commesso di punto vendita/shop assistant;pasticcere/pasticcera;Operaio Generico Chimico/Farmaceutico;Operaio Generico Manifatturiero;Gastronomo","Fogli di calcolo / elettronici;Browser per Internet;Sistemi Operativi","Team Working;Adattabilità al cambiamento","B","Liceo scientifico","Italiano;Spagnolo;Inglese","SESTO FIORENTINO",43.8345,11.1952
7153239,NA,"Operaio Generico Edile",NA,"Adattabilità al cambiamento;Comunicazione",NA,NA,NA,"PINETO",42.6097,14.066
4762606,"Operaio Generico Chimico/Farmaceutico","Magazziniere con funzioni di vendita;magazziniere/magazziniera;Operaio Generico Manifatturiero;Carrellista/Mulettista;Operatore customer service multicanale (sms, web meeting, telefono, mail);fattorino/fattorina","Sistemi Operativi;Progettazione / Disegno tecnico","Decision Making","B","Perito aeronautico","Italiano;Inglese;Altro","PONSACCO",43.6238,10.6291
5937079,"commesso di punto vendita/shop assistant","commesso di punto vendita/shop assistant",NA,"Comunicazione","B",NA,NA,"SALERNO",40.678,14.766
3039005,"Operaio Generico","Operaio Generico Metalmeccanico","Ceramica;Meccanica;Produzione;Progettazione;Saldatura","Orientamento alla qualità;Problem solving e analisi;Team Working;Iniziativa;Orientamento al cliente;Adattabilità al cambiamento","B",NA,"Inglese","BASSANO BRESCIANO",45.3272,10.1284
5281468,"Operaio Generico Tessile","Operaio Generico Alimentare;Operaio Generico Tessile","Tessile","Orientamento alla qualità","B",NA,NA,"ACQUANEGRA SUL CHIESE",45.1625,10.4347
1208822,NA,"Impiegato Commerciale;Carrellista/Mulettista;commesso di punto vendita/shop assistant;magazziniere/magazziniera;cassiere/cassiera;Operaio Generico Metalmeccanico","Magazzino;Grande distribuzione;Posta elettronica/Messaggistica;Fogli di calcolo / elettronici;Metalmeccanico;Saldatura;Word Processor - Elaborazione testi","Comunicazione","A;B","Liceo artistico","Italiano;Inglese","NONIO",45.8458,8.37752
3225110,"idraulico","idraulico;Operaio Generico Metalmeccanico","Meccanica;Progettazione","Comunicazione",NA,NA,"Inglese","BRESCIA",45.5248,10.2273
3276906,"addetto alle pulizie","addetto alle pulizie;cuoco/cuoca;assistente di cucina;Operaio Generico Metalmeccanico","Magazzino;Produzione","Comunicazione","B","Licenza media","Italiano","ORZINUOVI",45.404,9.92156
3250722,NA,"Operaio Generico Metalmeccanico;addetto all'inventario","Produzione;Magazzino",NA,"A;B","Licenza media","Italiano","POZZO D'ADDA",45.5726,9.50295
1218860,"Addetto al Confezionamento Farmaceutico","informatore medico scientifico/informatrice medico scientifica;Autista","Fogli di calcolo / elettronici;Chimica;Produzione;Database;Progettazione / Disegno tecnico;Trasporti;Edilizia","Iniziativa;Orientamento al cliente;Orientamento al risultato;Comunicazione;Decision Making;Gestione dei cambiamenti;Orientamento alla qualità;Team Working;Problem solving e analisi","A;B","Diploma in pittura/restauro","Inglese;Altro","CAMISANO VICENTINO",45.5222,11.7077
4962666,"Operaio Generico Metalmeccanico","Operaio Generico Metalmeccanico",NA,"Adattabilità al cambiamento;Comunicazione","B","Operatore macchine utensili",NA,"BAGNOLO MELLA",45.4291,10.1844
1047614,NA,"magazziniere/magazziniera;addetto alle pulizie;addetto carico/scarico;Operaio Generico Metalmeccanico","Produzione;Browser per Internet;Igiene / Pulizia;Magazzino;Piani;Vendita","Adattabilità al cambiamento;Orientamento alla qualità","B","Geometra","Inglese;Italiano","CASALINCONTRADA",42.2974,14.1351
5956413,"Operatore customer service multicanale (sms, web meeting, telefono, mail)","addetto al ricevimento/addetta al ricevimento",NA,"Orientamento alla qualità",NA,NA,NA,"BRUINO",45.0099,7.48422
1160614,"Operaio Generico Edile;Operaio Generico;saldatore/saldatrice;Operaio Generico Metalmeccanico","saldatore/saldatrice;fresatore;Operaio Generico Metalmeccanico","Macchine utensili;Produzione;Saldatura;Magazzino;Metalmeccanico","Adattabilità al cambiamento;Decision Making;Team Working;Orientamento alla qualità","B","Licenza media","Italiano","FIESSE",45.2315,10.3242
5762152,NA,"amministratore di stabili e condomini/amministratrice di stabili e condomini;Impiegato - Recupero Crediti","Contabilità;Fogli di calcolo / elettronici","Orientamento al risultato","B","Ragioneria","Italiano","PESCARA",42.4602,14.2102
4056332,NA,"assistente amministrativo;gommista;Operaio Generico Automotive;Operaio Generico Chimico/Farmaceutico;Back office assicurativo;impiegato di magazzino;operatore di call center/operatrice di call center","Magazzino;Sistemi Operativi;Fogli di calcolo / elettronici;Word Processor - Elaborazione testi;Assistenza tecnica;Grafici e Presentazioni;Browser per Internet","Orientamento alla qualità;Iniziativa","Altro;A","Perito in costruzioni areonautiche","Inglese","ROMA",41.8947,12.4839
272786,NA,"public relations officer;addetto all'amministrazione del personale;addetto alla contabilità generale;assistente amministrativo;addetto alla logistica/addetta alla logistica","Posta elettronica/Messaggistica;Sistemi Operativi;Risorse Umane;Vendita;Acquisti;Segreteria;Contabilità;Legale;Browser per Internet;Magazzino","Comunicazione;Decision Making","B","Licenza media;Ragioneria","Altro;Spagnolo;Inglese","MAZARA DEL VALLO",37.6641,12.588
263408,"manutentore;carpentiere/carpentiera","magazziniere/magazziniera;Operaio Generico Metalmeccanico","Elettrica / Elettrotecnica;Produzione;Strumenti e utensili;Macchine utensili;Meccanica;Gomma Plastica;Assistenza tecnica;Stampaggio","Comunicazione;Decision Making;Pianificazione e organizzazione;Adattabilità al cambiamento;Orientamento alla qualità;Iniziativa;Problem solving e analisi",NA,NA,"Inglese","ROVATO",45.5658,10.0001
169315,"operatore di macchine CNC/operatrice di macchine CNC;Operaio Generico;Operaio Generico Gomma/Plastica","Operaio Generico Metalmeccanico;Operaio Generico Gomma/Plastica;Operaio Generico Chimico/Farmaceutico;magazziniere/magazziniera;Operatore su macchine automatiche/semiautomatiche","Meccanica;Magazzino;Vendita;Segreteria;Assistenza tecnica;Produzione","Problem solving e analisi;Team Working;Orientamento alla qualità",NA,NA,"Inglese","COCCAGLIO",45.5646,9.97426
3619866,"manutentore","Operaio Generico Metalmeccanico","Magazzino;Meccanica;Assistenza tecnica;Elettrica / Elettrotecnica;Macchine utensili;Produzione;Sicurezza / Qualità","Pianificazione e organizzazione;Orientamento alla qualità;Iniziativa;Problem solving e analisi;Decision Making;Team Working",NA,"Tecnico delle industrie meccaniche","Inglese","CIMBERGO",46.0241,10.3657
2914978,"Verniciatore;Operaio Generico Metalmeccanico;Operaio Generico","Montatore meccanico;Operaio Generico Metalmeccanico","Verniciatura;Produzione;Meccanica","Comunicazione;Gestione dei cambiamenti;Orientamento alla qualità","B","Operatore grafico pubblicitario","Italiano","NOALE",45.5533,12.0719
5299694,"Operaio Generico Chimico/Farmaceutico","Operaio Generico Edile",NA,NA,NA,NA,NA,"MILANO",45.4773,9.1815
641263,"magazziniere/magazziniera","Operaio Generico Metalmeccanico",NA,NA,"B","ITS Settore Energetico",NA,"TARANTO",40.4761,17.2297
3641565,"Operaio Generico;Montatore meccanico","Operaio Generico Metalmeccanico;fresatore;Tornitore manuale;operatore di macchine CNC/operatrice di macchine CNC","Macchine utensili;Word Processor - Elaborazione testi","Orientamento al risultato;Comunicazione;Gestione dei cambiamenti","B","Licenza media","Arabo;Italiano","TORINO",45.0705,7.68682
6484167,NA,"addetto alle pulizie;addetto alla lavorazione dei metalli;Operaio Generico Gomma/Plastica;Operaio Generico Metalmeccanico;stiratore/stiratrice",NA,NA,NA,NA,"Italiano","SAREZZO",45.6617,10.196
5069136,"magazziniere/magazziniera","assistente pubblicitario/assistente pubblicitaria;impiegato di magazzino;Funzionario Informatico Pubblica Amministrazione;Segretario amministrativo/ segretaria amministrativa","Contact Center;Vendita;Segreteria;Acquisti;Browser per Internet;Magazzino",NA,NA,"Liceo scientifico","Italiano;Inglese","MENTANA",42.0349,12.6424
1043845,"magazziniere/magazziniera","Operaio Generico Metalmeccanico","Magazzino;Vendita","Orientamento alla qualità;Team Working;Comunicazione;Problem solving e analisi",NA,NA,"Inglese","BRENO",45.9578,10.3048
3377033,"Operaio Generico","Operaio Generico Metalmeccanico;Operaio specializzato tessile;commesso di punto vendita/shop assistant;Operaio specializzato calzaturiero","Produzione;Magazzino","Iniziativa;Comunicazione",NA,"Licenza media","Italiano","BOFFALORA SOPRA TICINO",45.4674,8.83095
2300597,"Operaio Generico Metalmeccanico;operatore di macchine CNC/operatrice di macchine CNC;saldatore/saldatrice","Operaio Generico Metalmeccanico;saldatore/saldatrice","Metalmeccanico;Produzione;Magazzino;Saldatura;Sala","Comunicazione","Altro;B","Licenza media","Spagnolo;Inglese;Italiano","BRESCIA",45.5248,10.2273
2681200,"Operaio Generico","Operaio Generico Gomma/Plastica;Operaio Generico Servizi/Terziario;Autista;magazziniere/magazziniera;Operaio Generico Metalmeccanico","Produzione;Meccanica;Magazzino;Vendita","Adattabilità al cambiamento;Comunicazione","B;A",NA,"Italiano;Inglese","BRESCIA",45.5248,10.2273
2744543,NA,"Operaio Generico Metalmeccanico","Browser per Internet;Posta elettronica/Messaggistica;Assistenza tecnica;Elettrica / Elettrotecnica","Comunicazione;Iniziativa","B","Operatore elettrico","Inglese;Altro","VILLANUOVA SUL CLISI",45.6002,10.4528
7303190,"Operaio Generico Metalmeccanico","Operaio Generico Metalmeccanico","Metalmeccanico","Comunicazione;Adattabilità al cambiamento",NA,NA,NA,"BRENDOLA",45.4749,11.4423
6632585,NA,"Operatore su macchine automatiche/semiautomatiche",NA,NA,NA,NA,NA,"ARCONATE",45.542,8.84854
3441413,"Operaio Generico Metalmeccanico","Operaio Generico Manifatturiero;Operaio Generico Servizi/Terziario;addetto carico/scarico;magazziniere/magazziniera;Operaio Generico Metalmeccanico;addetto controllo qualità prodotti;Operaio Generico Automotive;Operaio Generico Gomma/Plastica;Impiegato contabilità di magazzino","Metalmeccanico;Produzione","Adattabilità al cambiamento;Comunicazione","B",NA,NA,"GRUGLIASCO",45.0681,7.57762
6375824,NA,"Addetto Fast Food",NA,NA,NA,NA,NA,"TORINO",45.0705,7.68682
1965022,NA,"magazziniere/magazziniera;Addetto al Confezionamento Farmaceutico",NA,NA,NA,NA,NA,"SAN BENIGNO CANAVESE",45.2271,7.78502
5087197,NA,"assistente amministrativo",NA,NA,NA,NA,NA,"SARCEDO",45.7002,11.5296
1318105,"manutentore","Montatore meccanico;idraulico;Autista;Operaio Generico Metalmeccanico;Operaio Generico Alimentare","Meccanica;Progettazione multimediale;Produzione","Team Working;Orientamento alla qualità;Comunicazione;Decision Making;Problem solving e analisi;Adattabilità al cambiamento","Altro","Geometra","Altro","ISOLA DELLA SCALA",45.2722,11.009
4643983,"Operaio Generico Gomma/Plastica;magazziniere/magazziniera","addetto agli scaffali/addetta agli scafali;addetto controllo qualità prodotti;Operaio Generico Trasporti/Logistica;Operaio Generico Automotive","Gomma Plastica;Browser per Internet;Metalmeccanico;Sistemi Operativi;Magazzino;Alimentare;Trasporti;Produzione","Iniziativa;Comunicazione","B;Altro","Perito in Elettronica ed Elettrotecnica","Inglese;Altro;Italiano","TORINO",45.0705,7.68682
7605839,NA,"Operaio Generico Cartotecnico/Grafico",NA,"Iniziativa;Decision Making;Comunicazione",NA,NA,NA,"ALBIGNASEGO",45.3475,11.8672
6682122,"Operaio Generico Automotive","addetto carico/scarico",NA,"Comunicazione",NA,NA,NA,"TORINO",45.0705,7.68682
5673405,NA,"Operaio Generico Elettronico/ Elettrotecnico;addetto alle pulizie;elettricista;portinaio;pittore edile/pittrice edile","Assistenza tecnica;Verniciatura;Elettrica / Elettrotecnica;Igiene / Pulizia","Iniziativa","B",NA,NA,"LESMO",45.6486,9.30735
4455805,"Montatore meccanico;Operaio Generico Gomma/Plastica","magazziniere/magazziniera;Operaio Generico Alimentare;Operaio Generico Chimico/Farmaceutico;Autista",NA,"Iniziativa","B",NA,NA,"MONZA",45.5825,9.27485
5105080,NA,"Operaio Generico Metalmeccanico",NA,NA,"A;B",NA,NA,"BALDISSERO CANAVESE",45.4103,7.74422
5342027,NA,"addetto alle pulizie;Cameriere;barista","Sala;Gomma Plastica;Produzione;Cucina;Igiene / Pulizia","Comunicazione;Adattabilità al cambiamento","B",NA,NA,"SAN ZENO NAVIGLIO",45.4926,10.2185
1120554,"Operaio Generico Commercio/Retail;addetto alle pulizie","Operaio Generico Metalmeccanico",NA,"Comunicazione;Decision Making",NA,NA,NA,"DESENZANO DEL GARDA",45.468,10.534
54309,"Operaio Generico Metalmeccanico","addetto alla lavorazione dei metalli;installatore di porte/installatrice di porte","Produzione","Orientamento alla qualità",NA,"Operatore meccanico","Inglese","CASELLE TORINESE",45.1778,7.64262
6031916,"assistente di cucina;Operatore su macchine automatiche/semiautomatiche;magazziniere/magazziniera;addetto controllo qualità prodotti;Operaio Generico Metalmeccanico;operatore di macchine CNC/operatrice di macchine CNC;commesso di punto vendita/shop assistant;gommista;Operaio Generico Servizi/Terziario","Operaio Generico Manifatturiero",NA,"Decision Making",NA,NA,NA,"BRESCIA",45.5248,10.2273
6428284,NA,"Operaio Generico Metalmeccanico;addetto agli scaffali/addetta agli scafali",NA,"Comunicazione","B","Operatore meccanico",NA,"PISOGNE",45.8101,10.1073
5727799,"magazziniere/magazziniera;Operaio Generico Metalmeccanico","magazziniere/magazziniera","Progettazione","Comunicazione;Decision Making;Iniziativa","B","Addetto alla lavorazione dei metalli","Italiano;Inglese","PIACENZA",45.0468,9.69937
7270512,NA,"Operaio Generico Agricoltura/Ambiente/Allevamento","Verniciatura;Magazzino","Comunicazione;Decision Making;Iniziativa;Adattabilità al cambiamento;Gestione dei cambiamenti",NA,NA,NA,"BAGNOLO MELLA",45.4291,10.1844
6663669,NA,"Back Office Commerciale;Impiegato Commerciale Estero (Import - Export)","Segreteria;Progettazione / Disegno tecnico","Pianificazione e organizzazione;Comunicazione;Problem solving e analisi;Orientamento al cliente;Orientamento alla qualità",NA,NA,"Inglese","PIACENZA",45.0468,9.69937
4830611,NA,"Responsabile punto vendita/filiale","Applicazioni;Grande distribuzione","Comunicazione",NA,NA,"Inglese","SANT'ANTONINO DI SUSA",45.107,7.27361
539290,"Operaio Generico Gomma/Plastica;addetto alle pulizie;Operaio Generico","Operaio Generico Gomma/Plastica;Operaio Generico Metalmeccanico","Produzione;Word Processor - Elaborazione testi;Stampaggio;Gomma Plastica;Magazzino;Meccanica","Comunicazione;Orientamento alla qualità","B","Licenza media","Italiano;Inglese","BERNAREGGIO",45.6478,9.40505
2449368,"Operaio Generico Gomma/Plastica;Operaio Generico;magazziniere/magazziniera;Operaio Generico Metalmeccanico","elettricista;magazziniere/magazziniera;Operaio Generico Metalmeccanico","Produzione;Meccanica","Adattabilità al cambiamento;Comunicazione;Iniziativa;Orientamento alla qualità;Orientamento al cliente","B","Operatore elettrico",NA,"BAGNOLO MELLA",45.4291,10.1844
6031803,NA,"Istruttore Amministrativo Pubblica Amministrazione;Disegnatore topografo",NA,NA,NA,NA,NA,"POLLONE",45.5798,8.00592
5405335,"Addetto Fast Food","tecnico delle telecomunicazioni",NA,"Adattabilità al cambiamento;Comunicazione",NA,NA,NA,"COLLEGNO",45.0775,7.57242
2586697,NA,"Impiegato Ufficio Legale;Segretario amministrativo/ segretaria amministrativa;magazziniere/magazziniera;Back Office Commerciale","Contabilità;Segreteria;Fogli di calcolo / elettronici",NA,"B","Altro","Inglese","BRANDIZZO",45.1772,7.83772
2565723,"Operaio Generico;Operatore su macchine automatiche/semiautomatiche","Operaio Generico Metalmeccanico;manutentore;tecnico delle telecomunicazioni","Assistenza tecnica;Elettrica / Elettrotecnica;Fogli di calcolo / elettronici;Word Processor - Elaborazione testi;Grafici e Presentazioni;Produzione","Comunicazione","B","Perito in Elettronica ed Elettrotecnica","Inglese","ORNAGO",45.6007,9.42015
2709773,NA,"Operaio Generico Gomma/Plastica;Operaio Generico Metalmeccanico;assistente di marketing;operaio manovale industriale/operaia manovale industriale","Edilizia","Comunicazione;Orientamento alla qualità;Team Working","B",NA,NA,"PONTOGLIO",45.5694,9.85346
1923991,"addetto alla lavorazione dei metalli;Manovratore di carroponte;magazziniere/magazziniera;Operaio Generico Metalmeccanico","Manovratore di carroponte;Operaio Generico Metalmeccanico;addetto alla lavorazione dei metalli;Carrellista/Mulettista","Magazzino","Team Working;Orientamento alla qualità;Orientamento al risultato;Problem solving e analisi;Decision Making","B;Altro","Ragioneria","Inglese","BRESCIA",45.5248,10.2273
3374159,NA,"Biochimico/Bioanalitico;responsabile del controllo qualità;tecnologo alimentare;Addetto alle vendite nel reparto macelleria;tecnico di laboratorio scientifico;Ricercatore ","Grafici e Presentazioni;Fogli di calcolo / elettronici;Word Processor - Elaborazione testi;Sicurezza / Qualità;Chimica;Alimentare","Iniziativa","B","Tecnologie alimentari;Scienze e Tecnologie Alimentari (LM-70);Tecnico dei servizi della ristorazione","Italiano;Inglese;Altro","SOMMACAMPAGNA",45.4066,10.8437
1161792,"magazziniere/magazziniera","magazziniere/magazziniera","Vendita;Magazzino","Problem solving e analisi;Team Working;Comunicazione;Orientamento alla qualità",NA,NA,"Inglese","ALPIGNANO",45.102,7.52662
6461596,NA,"Operaio Generico Metalmeccanico",NA,NA,NA,NA,NA,"BIONE",45.6728,10.3389
7006651,NA,"Banconista",NA,"Orientamento digitale;Comunicazione",NA,NA,NA,"FIRENZE",43.7667,11.25
5573902,NA,"Addetto Fast Food;magazziniere/magazziniera",NA,NA,NA,NA,NA,"TORINO",45.0705,7.68682
4295860,"Operaio Generico Metalmeccanico;assemblatore elettronico/assemblatrice elettronica","Educatore",NA,NA,"B",NA,NA,"REGGIO NELL'EMILIA",44.6982,10.6313
1881441,"magazziniere/magazziniera;Operaio Generico Metalmeccanico;addetto alla lavorazione dei metalli","Operaio Generico Metalmeccanico;idraulico","Grande distribuzione;Produzione;Edilizia;Meccanica","Problem solving e analisi;Comunicazione;Orientamento al cliente;Pianificazione e organizzazione;Orientamento alla qualità;Sviluppo delle risorse;Decision Making;Iniziativa;Spirito Imprenditoriale","A;B","Licenza media","Italiano","RONCADELLE",45.5272,10.1541
1898829,"Operaio Generico;lavoratore agricolo/lavoratrice agricola;Autista;Operaio Generico Metalmeccanico","gommista;Operaio Generico Metalmeccanico;installatore di porte/installatrice di porte","Meccanica",NA,"B","Licenza media","Italiano","CAMBIANO",44.9683,7.77203
3640737,NA,"Operaio Generico Metalmeccanico;segretario/segretaria;manutentore;impiegato di magazzino;commesso di punto vendita/shop assistant","Assistenza tecnica;Browser per Internet;Meccanica;Sistemi Operativi;Elettrica / Elettrotecnica",NA,"B","Operatore elettrico;Perito in Elettronica ed Elettrotecnica","Inglese","TORINO",45.0705,7.68682
6524742,NA,"addetto all'informazione e all'assistenza dei clienti",NA,"Comunicazione",NA,NA,NA,"VALENZA",45.0141,8.64144
5894072,"addetto carico/scarico","Analista di tempi e metodi;account manager;analista creditizio/analista creditizia;Esperto Software Gestionali / ERP;addetto alle spedizioni merci;estetista",NA,NA,NA,NA,NA,"ROVATO",45.5658,10.0001
5756828,NA,"Operaio Generico Gomma/Plastica;Operaio Generico Cartotecnico/Grafico;Operaio Generico Metalmeccanico;Operaio Generico Tessile",NA,NA,"B",NA,NA,"REMEDELLO",45.2784,10.372
4414559,"Operaio Generico Metalmeccanico","addetto alle pulizie;Operaio Generico Alimentare;Operaio Generico Metalmeccanico","Igiene / Pulizia;Piani","Orientamento alla qualità;Adattabilità al cambiamento",NA,NA,NA,"CALVAGESE DELLA RIVIERA",45.5334,10.4417
256550,NA,"addetto agli scaffali/addetta agli scafali;commesso di punto vendita/shop assistant","Contact Center;Word Processor - Elaborazione testi;Sistemi Operativi;Vendita;Posta elettronica/Messaggistica;Segreteria","Comunicazione","B","Liceo artistico","Inglese","CAMPOBASSO",41.56,14.6675
6380921,NA,"magazziniere/magazziniera;Operaio Generico Metalmeccanico;Carrellista/Mulettista",NA,"Comunicazione",NA,NA,NA,"ALMENNO SAN BARTOLOMEO",45.7427,9.58225
4424460,"addetto alla contabilità generale","addetto alla contabilità generale;assistente amministrativo;tesoriere;Impiegato Commerciale;Impiegato contabilità fornitori","Fogli di calcolo / elettronici;SAP;Grafici e Presentazioni;Contabilità;Controllo Di Gestione / Revisione / Bilancio",NA,"B","Scienze Politiche e delle Relazioni Internazionali (L-36)","Inglese;Spagnolo","SILVI",42.5467,14.123
4484327,"Operaio Generico Metalmeccanico","Operaio Generico Metalmeccanico","Produzione","Orientamento alla qualità","B",NA,"Italiano","SAN MAURIZIO CANAVESE",45.217,7.63052
5342008,"Operaio Generico Metalmeccanico","magazziniere/magazziniera","Assistenza tecnica;Macchine utensili;Meccanica;Elettrica / Elettrotecnica","Iniziativa;Problem solving e analisi;Comunicazione;Decision Making","B",NA,"Inglese","BRESCIA",45.5248,10.2273
6009455,NA,"Operaio Generico Alimentare;Operaio Generico Turistico/Alberghiero/Ristorazione;Operaio Generico Metalmeccanico",NA,NA,NA,NA,NA,"VENAROTTA",42.8829,13.4923
3625956,"addetto alla lavorazione dei metalli;magazziniere/magazziniera;Operaio Generico Metalmeccanico","Operaio Generico Metalmeccanico;Manovratore di carroponte;magazziniere/magazziniera","Elettrica / Elettrotecnica;Macchine utensili;Vendita;Produzione;Assistenza tecnica;Meccanica;Magazzino","Orientamento alla qualità;Problem solving e analisi;Team Working","Altro;B","Operatore grafico pubblicitario","Inglese","ALFIANELLO",45.267,10.1482
1631205,"Operaio Generico","Operaio Generico Metalmeccanico;addetto agli scaffali/addetta agli scafali;assemblatore elettronico/assemblatrice elettronica;cassiere/cassiera;commesso di punto vendita/shop assistant","Produzione;Gomma Plastica;Vendita;Meccanica;Stampaggio;Strumenti e utensili",NA,"B","Licenza media","Inglese;Altro;Italiano","CORREGGIO",44.7698,10.7823
7539282,"Operaio Generico Trasporti/Logistica","magazziniere/magazziniera","Magazzino","Comunicazione",NA,NA,NA,"BORGONOVO VAL TIDONE",45.0144,9.44346
6217017,NA,"Operaio Generico Metalmeccanico",NA,"Orientamento al risultato","B",NA,NA,"BRESCIA",45.5248,10.2273
6900761,"commesso di punto vendita/shop assistant;Banconista","Beauty consultant","Vendita","Comunicazione",NA,NA,NA,"CAMPI BISENZIO",43.8246,11.1324
5986310,"Operaio Generico Manifatturiero","Operaio Generico Manifatturiero",NA,"Iniziativa;Adattabilità al cambiamento;Comunicazione;Decision Making",NA,NA,NA,"PARMA",44.8027,10.329
4533313,NA,"Addetto Mensa",NA,"Comunicazione",NA,NA,NA,"MANERBIO",45.3558,10.1352
7620222,NA,"addetto alla logistica/addetta alla logistica",NA,"Adattabilità al cambiamento;Comunicazione;Iniziativa","B","Liceo classico","Inglese","CAVRIAGO",44.6937,10.5275
5984752,"Operaio Generico Metalmeccanico","Operaio Generico Metalmeccanico",NA,"Comunicazione;Adattabilità al cambiamento",NA,"Licenza media",NA,"CASTELLAMONTE",45.382,7.71212
5887719,"magazziniere/magazziniera","addetto agli scaffali/addetta agli scafali","Magazzino","Comunicazione",NA,NA,"Inglese","ALATRI",41.7306,13.3402
4596877,NA,"Autista;Carrellista/Mulettista;magazziniere/magazziniera","Magazzino;Trasporti",NA,"CQC Merci;C",NA,NA,"TORINO",45.0705,7.68682
2547947,"Operaio Generico Metalmeccanico","addetto controllo qualità prodotti;operatore di macchine CNC/operatrice di macchine CNC;addetto alla lavorazione dei metalli;Collaudatore","Linguaggi di programmazione / Ambienti di sviluppo",NA,"B","Tecnico delle industrie meccaniche","Inglese","SAN MARTINO IN RIO",44.732,10.7821
7056795,"Operaio Generico Alimentare","Addetto al Confezionamento Farmaceutico","Alimentare","Comunicazione;Adattabilità al cambiamento;Iniziativa;Problem solving e analisi",NA,NA,NA,"MORETTA",44.7638,7.53712
4585150,NA,"Operaio Generico Gomma/Plastica;Addetto al montaggio (m/f);Operaio Generico Metalmeccanico;Produzione (altro) (m/f)","Produzione;Magazzino","Adattabilità al cambiamento;Comunicazione;Iniziativa","B",NA,"Inglese","BRUINO",45.0099,7.48422
2657667,"Operaio Generico Metalmeccanico","Operaio Generico Aeronautico/Marittimo/Navale;Operaio Generico Metalmeccanico;magazziniere/magazziniera","Sicurezza / Qualità;Vendita;Magazzino;Verniciatura;Elettrica / Elettrotecnica;Produzione;Saldatura","Adattabilità al cambiamento;Comunicazione;Orientamento alla qualità;Pianificazione e organizzazione;Problem solving e analisi;Team Working","B","Licenza media","Inglese;Italiano","TORINO",45.0705,7.68682
356798,"Operaio Generico Alimentare","Operaio Generico Metalmeccanico;Operatore su Stampi",NA,"Iniziativa;Comunicazione","B",NA,NA,"SANT'AMBROGIO DI TORINO",45.0994,7.36232
2437268,NA,"assistente amministrativo;addetto alla contabilità generale",NA,"Comunicazione","B",NA,NA,"CONCESIO",45.6052,10.217
6263336,NA,"Operaio Generico Alimentare",NA,"Comunicazione;Iniziativa",NA,NA,NA,"ALBIANO D'IVREA",45.433,7.95062
4395953,NA,"Operaio Generico Metalmeccanico",NA,NA,NA,NA,NA,"SAN GIOVANNI IN MARIGNANO",43.9342,12.7014
6553624,NA,"Autista",NA,"Comunicazione",NA,NA,NA,"CARPI",44.7824,10.8777
3953078,NA,"addetto alla contabilità generale","Fogli di calcolo / elettronici;Segreteria","Iniziativa","B","Scienze della Comunicazione (L-20) ","Spagnolo;Altro;Inglese","CESANA BRIANZA",45.8168,9.29954
6228674,"addetto alle pulizie","addetto alle pulizie",NA,"Iniziativa",NA,NA,NA,"CREMONA",45.1362,10.028
163258,"magazziniere/magazziniera","Carrellista/Mulettista;Operaio Generico Metalmeccanico;magazziniere/magazziniera","Vendita;Magazzino;Produzione","Orientamento alla qualità;Iniziativa","Altro;CE;B;C;D;A",NA,"Inglese","URBANA",40.1106,-88.2073
1919220,"Operaio Generico;conduttore di robot industriali/conduttrice di robot industriali;Autista","fattorino/fattorina;Operaio Generico Metalmeccanico;tornitore CNC;addetto controllo qualità prodotti;operatore di macchine CNC/operatrice di macchine CNC","Trasporti;Sicurezza / Qualità;Vendita;Cucina;Macchine utensili;Produzione;Magazzino;Meccanica;Saldatura","Problem solving e analisi;Orientamento alla qualità;Team Working","B","Operatore meccanico","Inglese;Italiano","BRESCIA",45.5248,10.2273
6426313,NA,"Operaio Generico Metalmeccanico",NA,NA,NA,NA,NA,"COCCAGLIO",45.5646,9.97426
6952326,NA,"Impiegato Ufficio Acquisti",NA,"Comunicazione",NA,NA,NA,"BRESCIA",45.5248,10.2273
2875396,"Operaio Generico;Operaio Generico Metalmeccanico","Operaio Generico Metalmeccanico;Operaio Generico Chimico/Farmaceutico;addetto controllo qualità prodotti;designer grafico/designer grafica;Operaio Generico Gomma/Plastica","Progettazione multimediale;Grande distribuzione;Vendita;Word Processor - Elaborazione testi;Produzione","Adattabilità al cambiamento;Comunicazione;Decision Making;Gestione dei cambiamenti;Orientamento alla qualità;Orientamento al cliente","B","Perito per le arti grafiche","Inglese;Italiano","RONCADELLE",45.5272,10.1541
3315179,"Operaio Generico Metalmeccanico;Operaio Generico Elettronico/ Elettrotecnico","Operaio Generico Metalmeccanico","Magazzino;Posta elettronica/Messaggistica;Produzione","Adattabilità al cambiamento","B",NA,"Arabo;Altro;Inglese;Italiano","MAZZANO",45.5201,10.3539
5601799,NA,"Operaio Generico Chimico/Farmaceutico",NA,NA,NA,NA,NA,"PRATO",43.8843,11.0909
7356406,NA,"addetto agli scaffali/addetta agli scafali",NA,"Comunicazione","B",NA,NA,"SANT'EGIDIO ALLA VIBRATA",42.821,13.7179
603680,NA,"addetto al ricevimento/addetta al ricevimento;Addetto/a reparto dermocosmetico;Operaio Generico Manifatturiero",NA,"Orientamento al cliente","B","Istituto magistrale pedagogico sociale","Inglese;Spagnolo","SAN GIORGIO IONICO",40.4566,17.3787
3042029,NA,"Operaio Generico Metalmeccanico;Carrellista/Mulettista","Produzione;Cucina;Word Processor - Elaborazione testi;Browser per Internet;Posta elettronica/Messaggistica;Sistemi Operativi;Magazzino","Iniziativa","B","Carrello elevatore (patentino);Operatore ai servizi di ristorazione","Inglese","TORINO",45.0705,7.68682
733557,"Operaio Generico Metalmeccanico","Operaio Generico Metalmeccanico;addetto controllo qualità prodotti","Meccanica","Adattabilità al cambiamento;Comunicazione","B","Tecnico dei servizi per l'enogastronomia e l'ospitalità alberghiera","Altro;Inglese","BARIANO",45.5126,9.70366
967126,"Operaio Generico Cartotecnico/Grafico","commesso di punto vendita/shop assistant;pizzaiolo/pizzaiola;tecnico di laboratorio scientifico;Operaio Generico Metalmeccanico","Fogli di calcolo / elettronici;Word Processor - Elaborazione testi;Posta elettronica/Messaggistica;Progettazione / Disegno tecnico",NA,"B","Geometra;Scienze Geologiche (L-34)","Inglese","SEREGNO",45.6524,9.20034
5390049,"Operaio Generico Tessile;Carrellista/Mulettista;Operaio Generico Metalmeccanico","sviluppatore di software/sviluppatrice di software;tecnico informatico;tornitore CNC;Esperto Software Gestionali / ERP;Operaio Generico Metalmeccanico","Meccanica","Comunicazione;Adattabilità al cambiamento;Team Working;Orientamento alla qualità","B","Perito in informatica","Inglese","CASTEL GOFFREDO",45.2986,10.4754
5366146,NA,"Addetto Fast Food;Cameriere;Soccorritore su Ambulanza;commesso di punto vendita/shop assistant;segretario/segretaria;Beauty consultant","Posta elettronica/Messaggistica;Fogli di calcolo / elettronici;Word Processor - Elaborazione testi;Grafici e Presentazioni",NA,NA,NA,"Inglese;Spagnolo;Italiano","VENARIA REALE",45.1239,7.63542
735175,"magazziniere/magazziniera","impiegato di magazzino","Progettazione / Disegno tecnico;Contact Center;Vendita;Segreteria;Produzione;Magazzino;Sistemi Operativi","Gestione dei cambiamenti;Comunicazione","B","Tecnico della gestione aziendale (ex Analista Contabile)","Inglese;Altro","ANDRIA",41.2306,16.2909
5619515,NA,"Gestore di Bar;Collaboratore Informatico Pubblica Amministrazione",NA,NA,NA,NA,NA,"VAPRIO D'AGOGNA",45.6037,8.55353
3462443,NA,"impiegato di magazzino;Montatore meccanico;Operatore su macchine automatiche/semiautomatiche;fattorino/fattorina;magazziniere/magazziniera","Posta elettronica/Messaggistica;Browser per Internet;Meccanica;Sistemi Operativi;Produzione;Sistemi di Gestione ;Magazzino","Team Working;Adattabilità al cambiamento;Gestione dei cambiamenti;Comunicazione;Decision Making;Orientamento al cliente;Orientamento alla qualità;Problem solving e analisi","B","Altro","Inglese","BARI",41.1177,16.8512
4373854,"elettricista","Operaio Generico Edile;Operaio Generico Gomma/Plastica;Operaio Generico Metalmeccanico;raccoglitore di frutta e ortaggi/raccoglitrice di frutta e ortaggi;Operaio Generico Agricoltura/Ambiente/Allevamento","Segreteria;Fogli di calcolo / elettronici;Guardaroba;Produzione;Word Processor - Elaborazione testi;Browser per Internet;Stampaggio;Magazzino","Comunicazione","B","Geometra","Inglese","COLLEGNO",45.0775,7.57242
5627741,"Operaio Generico Alimentare","Commis di Sala;Acquirente / Buyer (m/f);cuoco/cuoca;lavapiatti;Order Entry / Impiegato Customer Service;Cameriere",NA,"Iniziativa;Orientamento al risultato;Comunicazione",NA,NA,NA,"CALUSCO D'ADDA",45.6914,9.47265
826633,"Verniciatore","magazziniere/magazziniera;Autista;Giardiniere/floricoltore/serrista/vivaista;tecnico colorista","Progettazione;Vendita;Word Processor - Elaborazione testi;Grafici e Presentazioni;Magazzino;Sistemi Operativi;Animazione e sport;Posta elettronica/Messaggistica;Fogli di calcolo / elettronici;Progettazione multimediale;Chimica","Problem solving e analisi;Team Working;Orientamento alla qualità","B","Perito agrario","Inglese","GRUGLIASCO",45.0681,7.57762
5050111,NA,"addetto alla contabilità generale;assistente amministrativo",NA,NA,"B","Tecnico della gestione aziendale (ex Analista Contabile)",NA,"SCHIO",45.7124,11.3574
2564602,NA,"Montatore meccanico;Operaio addetto alle lavorazioni pelli finite (settore conceria);Operaio Generico Metalmeccanico","Cucina;Contabilità;Grande distribuzione;Magazzino;Sala;Vendita;Segreteria","Comunicazione;Decision Making;Orientamento alla qualità;Problem solving e analisi;Team Working;Adattabilità al cambiamento;Pianificazione e organizzazione","B",NA,"Spagnolo;Inglese","ORZINUOVI",45.404,9.92156
7254604,"barista","Multi Categoria",NA,"Comunicazione",NA,NA,NA,"FIRENZE",43.7667,11.25
5837621,NA,"Operaio Generico Gomma/Plastica",NA,"Comunicazione","B",NA,NA,"MONASTIER DI TREVISO",45.6578,12.4175
4439794,"Operaio Generico Metalmeccanico","Operaio Generico Metalmeccanico",NA,"Comunicazione","B",NA,NA,"SANGUINETTO",45.1838,11.1446
1975194,NA,"disegnatore meccanico/disegnatrice meccanica;Grafico pubblicitario (m/f);magazziniere/magazziniera;Operaio Generico Metalmeccanico","Progettazione;Vendita;Word Processor - Elaborazione testi;Magazzino;Grafici e Presentazioni;Progettazione multimediale","Pianificazione e organizzazione;Team Working;Comunicazione;Iniziativa;Orientamento al risultato;Problem solving e analisi;Orientamento alla qualità","B",NA,"Altro;Inglese","TORINO",45.0705,7.68682
6090257,"magazziniere/magazziniera","magazziniere/magazziniera",NA,NA,NA,NA,NA,"GRASSOBBIO",45.6569,9.72566
1504694,NA,"informatore medico scientifico/informatrice medico scientifica;Quality Assurance Specialist ;tecnico sanitario di laboratorio biomedico;Biologo","Tecnica;Marketing/Comunicazione;Grafici e Presentazioni;Fogli di calcolo / elettronici;Browser per Internet",NA,"B","Biotecnologie Mediche;Biologia","Inglese","MONTERONI D'ARBIA",43.2293,11.4209
911024,"Collaudatore Elettrico;Operaio Generico;addetto alla lavorazione dei metalli","Operaio Generico Metalmeccanico;elettricista;Operaio Generico Gomma/Plastica;operatore fresatrice CNC;manutentore","Assistenza tecnica;Elettrica / Elettrotecnica","Comunicazione","B","Installatore, manutentore impianti elettrici","Inglese","GARDONE VAL TROMPIA",45.6942,10.187
6084503,"magazziniere/magazziniera","Carrellista/Mulettista",NA,NA,NA,NA,NA,"FELINO",44.6958,10.2411
5982477,NA,"addetto alle pulizie","Piani;Igiene / Pulizia;Vendita","Gestione dei cambiamenti;Orientamento alla qualità;Decision Making;Comunicazione;Orientamento al cliente;Adattabilità al cambiamento",NA,NA,"Inglese","DESENZANO DEL GARDA",45.468,10.534
922033,"Operaio Generico Metalmeccanico","Giardiniere/floricoltore/serrista/vivaista;magazziniere/magazziniera;Operaio Generico Metalmeccanico;saldatore/saldatrice","Produzione;Saldatura","Orientamento alla qualità;Comunicazione","B","Licenza media","Altro;Italiano","MONTICHIARI",45.4152,10.3907
7148816,NA,"Operaio Generico Alimentare",NA,"Comunicazione;Iniziativa",NA,NA,NA,"BERCETO",44.509,9.99104
2735410,"Operaio Generico Metalmeccanico","Carrellista/Mulettista;Manovratore di carroponte;Operaio Generico Metalmeccanico;magazziniere/magazziniera","Meccanica;Magazzino","Comunicazione;Adattabilità al cambiamento","B;Patentino Piattaforme da Lavoro Elevabili","Licenza media","Inglese;Italiano","GOSSOLENGO",45.0023,9.61646
5906699,NA,"Addetto all'assistenza anziani (m/f);Operaio Generico Alimentare",NA,"Comunicazione","B",NA,NA,"SUNI",40.2808,8.54942
1864240,"Operaio Generico Chimico/Farmaceutico;addetto carico/scarico","Operaio Generico Metalmeccanico","Magazzino;Vendita","Problem solving e analisi;Team Working;Orientamento alla qualità","B","Tecnico dei servizi per l'enogastronomia e l'ospitalità alberghiera","Inglese","LOMAGNA",45.668,9.37605
5070189,NA,"Operaio Generico Tessile",NA,"Comunicazione",NA,NA,NA,"LESSOLO",45.4783,7.81472
7341492,NA,"Operaio Generico Gomma/Plastica",NA,"Comunicazione",NA,NA,NA,"BITRITTO",41.0445,16.8252
7296512,NA,"Operaio Generico Alimentare;Operaio Generico Gomma/Plastica;Operaio Generico Chimico/Farmaceutico",NA,"Comunicazione;Iniziativa","B",NA,"Italiano;Altro;Inglese","BORGO SAN GIACOMO",45.347,9.96847
6345431,NA,"ausiliario del traffico;gommista;carrozziere;magazziniere/magazziniera;Meccanico automobilistico (m/f)",NA,NA,NA,NA,NA,"SANT'ELIA FIUMERAPIDO",41.5285,13.8524
6516972,NA,"Operaio Generico Elettronico/ Elettrotecnico",NA,"Orientamento alla qualità",NA,NA,NA,"RIVOLI",45.0715,7.52622
301577,NA,"Operaio Generico Metalmeccanico;Impiegato ufficio tecnico;commesso di punto vendita/shop assistant;Impiegato Commerciale;assistente amministrativo",NA,NA,"B","Ragioneria","Inglese;Italiano","CASTEGNATO",45.5602,10.114
6077569,NA,"Operaio Generico Chimico/Farmaceutico",NA,NA,NA,NA,NA,"PAVIA",45.1845,9.16145
1403365,"Operaio Generico","impiegato di magazzino","Fogli di calcolo / elettronici","Adattabilità al cambiamento;Problem solving e analisi;Comunicazione","B","Ragioneria","Altro;Inglese","ALZATE BRIANZA",45.7698,9.18204
1697820,"hostess / steward di terra","Addetto alla cassa (m/f);consulente di viaggio;Back Office Commerciale;Segretario/a commerciale/Marketing/Ufficio Vendite;addetto al ricevimento/addetta al ricevimento;commesso di punto vendita/shop assistant;addetto al ricevimento /addetta al ricevimento (settore alberghiero);addetto allo scalo aeroportuale","Contact Center;Magazzino;Vendita;Ricevimento;Segreteria","Gestione dei cambiamenti;Adattabilità al cambiamento;Comunicazione;Decision Making;Orientamento al cliente","B","Istituto magistrale socio-psico pedagogico","Spagnolo;Inglese;Altro","VOLTA MANTOVANA",45.3187,10.6585
4113434,NA,"Operaio Generico Metalmeccanico;addetto alle pulizie;Addetto Lavorazione Vetro;magazziniere/magazziniera","Fogli di calcolo / elettronici;Browser per Internet;Piani","Adattabilità al cambiamento;Gestione delle risorse","B;A","Perito per l'elettronica e le telecomunicazioni","Altro","NOVA MILANESE",45.5904,9.19954
5603081,NA,"magazziniere/magazziniera;Manovratore di carroponte;Carrellista/Mulettista;addetto alle spedizioni merci;Operaio Generico Gomma/Plastica;Operaio Generico Metalmeccanico;Operaio Generico Trasporti/Logistica","Igiene / Pulizia;Magazzino;Macchine utensili;Saldatura;Strumenti e utensili;Metalmeccanico",NA,"B","Licenza media;Mulettista (patentino);Operatore macchine utensili","Italiano;Inglese","TORINO",45.0705,7.68682
6975767,NA,"Banconista",NA,"Comunicazione",NA,NA,NA,"TORINO",45.0705,7.68682
2421711,NA,"Impiegato Commerciale;impiegato di magazzino;addetto paghe e contributi;Capo turno;addetto all'amministrazione del personale;addetto alla contabilità generale;IT Delivery manager;assistente amministrativo;consulente finanziario;Addetto Istruttoria Finanziamanenti /mutui;commesso di punto vendita/shop assistant;contabile clienti;Impiegato contabilità fornitori;Visual Merchandiser;assistente contabile","Controllo Di Gestione / Revisione / Bilancio;Word Processor - Elaborazione testi;Contabilità;Grafici e Presentazioni;Segreteria;Posta elettronica/Messaggistica;Progettazione / Disegno tecnico;Alimentare;Amministrazione del personale;Browser per Internet;Database;Fogli di calcolo / elettronici","Pianificazione e organizzazione","B","Ragioniere programmatore;Scienze dell'Economia e della Gestione Aziendale (L-18);Economia Aziendale","Inglese","FOSSALTO",41.6729,14.5457
2001650,NA,"Carrellista/Mulettista;elettricista;magazziniere/magazziniera;Operaio Generico Metalmeccanico","Elettrica / Elettrotecnica;Fogli di calcolo / elettronici;Grafici e Presentazioni",NA,"B","Operatore elettrico","Italiano;Inglese","NICHELINO",44.994,7.64182
3323200,"Operaio Generico Metalmeccanico;addetto alla lavorazione dei metalli","Operaio Generico Metalmeccanico;saldatore/saldatrice;Maitre d'Hotel","Produzione;Meccanica;Metalmeccanico;Saldatura","Comunicazione;Decision Making;Orientamento alla qualità;Team Working","B",NA,"Altro;Italiano","VILLA CARCINA",45.6294,10.1965
6988587,NA,"Programmatore C/C++",NA,"Iniziativa;Comunicazione;Adattabilità al cambiamento;Pianificazione e organizzazione",NA,NA,NA,"BRESCELLO",44.8966,10.5123
1649017,"Montatore meccanico","Operaio Generico Metalmeccanico;manutentore;saldatore/saldatrice","Saldatura;Metalmeccanico","Team Working;Decision Making;Orientamento alla qualità",NA,NA,NA,"SORISOLE",45.7363,9.65505
256020,"Operaio Generico Metalmeccanico;Operaio Generico","operatore di macchine CNC/operatrice di macchine CNC","Magazzino;Produzione","Orientamento digitale;Adattabilità al cambiamento;Comunicazione;Iniziativa","B","Tecnico delle industrie meccaniche",NA,"DARFO BOARIO TERME",45.8927,10.2094
6911327,NA,"responsabile della contabilità",NA,NA,NA,NA,NA,"MACERATA",43.2982,13.4411
1181016,NA,"operatore ecologico/operatrice ecologica;magazziniere/magazziniera;Operaio Generico Metalmeccanico",NA,NA,NA,"Mulettista (patentino)",NA,"OSPITALETTO",45.1333,10.6
2269435,NA,"commesso di punto vendita/shop assistant;Addetto alla vendita in show room;Operaio Generico Metalmeccanico;magazziniere/magazziniera",NA,"Gestione delle risorse;Comunicazione;Decision Making;Iniziativa",NA,NA,NA,"OSPITALETTO",45.1333,10.6
4235915,"Operaio Generico Metalmeccanico","Operaio Generico Metalmeccanico",NA,NA,NA,NA,NA,"BUSANO",45.3329,7.65722
497768,"Operaio Generico","elettricista;Operaio Generico Metalmeccanico;magazziniere/magazziniera","Word Processor - Elaborazione testi;Assistenza tecnica;Elettrica / Elettrotecnica;Vendita;Magazzino","Comunicazione","B","Operatore elettrico","Inglese","ORIGGIO",45.5962,9.01754
5880504,NA,"assistente amministrativo",NA,NA,NA,NA,NA,"GRUGLIASCO",45.0681,7.57762
1527643,"magazziniere/magazziniera;Operaio Generico","impiegato di magazzino;magazziniere/magazziniera;Operaio Generico Metalmeccanico","Browser per Internet;Igiene / Pulizia;Alimentare;Edilizia;Produzione;Magazzino",NA,"B",NA,"Altro;Italiano;Inglese","VINOVO",44.9467,7.63252
