"Job_ID","Prof_cat","Hard_skills_group","Soft_skills","Education","Languages","Cards","Work_city","Latitudine","Longitudine"
"1739_114","addetto agli scaffali/addetta agli scafali","Grande distribuzione","Orientamento al cliente;Orientamento al risultato",NA,NA,NA,"PIOLTELLO",45.505,9.33151
"1606_139","addetto agli scaffali/addetta agli scafali","Grande distribuzione","Pianificazione e organizzazione",NA,NA,"B","MILANO",45.4773,9.1815
"1636_143","addetto agli scaffali/addetta agli scafali","Contact Center;Vendita;Segreteria","Decision Making;Team Working;Gestione dei cambiamenti;Comunicazione;Orientamento al cliente;Orientamento al risultato",NA,NA,NA,"MILANO",45.4773,9.1815
"1739_397","addetto agli scaffali/addetta agli scafali","Vendita",NA,NA,NA,"B","PIOLTELLO",45.505,9.33151
"1739_405","addetto agli scaffali/addetta agli scafali","Vendita",NA,NA,NA,"B","PIOLTELLO",45.505,9.33151
"1739_406","addetto agli scaffali/addetta agli scafali","Vendita",NA,NA,NA,"B","PIOLTELLO",45.505,9.33151
"1739_533","addetto agli scaffali/addetta agli scafali","Grande distribuzione","Orientamento al cliente;Problem solving e analisi;Orientamento alla qualità",NA,"Inglese",NA,"PIOLTELLO",45.505,9.33151
"1739_624","addetto agli scaffali/addetta agli scafali","Grande distribuzione",NA,NA,NA,NA,"PIOLTELLO",45.505,9.33151
"1739_641","addetto agli scaffali/addetta agli scafali","Grande distribuzione","Comunicazione;Problem solving e analisi;Orientamento al cliente",NA,"Inglese","B","VERCELLI",45.3231,8.41533
"1739_679","addetto agli scaffali/addetta agli scafali","Grande distribuzione",NA,NA,NA,"B","PIOLTELLO",45.505,9.33151
"1739_699","addetto agli scaffali/addetta agli scafali","Grande distribuzione",NA,NA,NA,"B","PIOLTELLO",45.505,9.33151
"1739_706","addetto agli scaffali/addetta agli scafali","Grande distribuzione","Problem solving e analisi",NA,NA,"B","VERCELLI",45.3231,8.41533
"1739_763","addetto agli scaffali/addetta agli scafali","Grande distribuzione","Orientamento al cliente",NA,NA,NA,"PIOLTELLO",45.505,9.33151
"1739_793","addetto agli scaffali/addetta agli scafali","Sala","Comunicazione",NA,"Inglese","B","VERCELLI",45.3231,8.41533
"1739_800","addetto agli scaffali/addetta agli scafali","Grande distribuzione",NA,NA,NA,NA,"PIOLTELLO",45.505,9.33151
"1739_975","addetto agli scaffali/addetta agli scafali","Grande distribuzione",NA,NA,NA,"B","VERCELLI",45.3231,8.41533
"1739_1183","addetto agli scaffali/addetta agli scafali","Grande distribuzione","Orientamento alla qualità",NA,NA,NA,"PIOLTELLO",45.505,9.33151
"0431_12482","addetto agli scaffali/addetta agli scafali","Vendita","Adattabilità al cambiamento;Orientamento al cliente;Comunicazione;Decision Making;Gestione dei cambiamenti",NA,"Inglese","B","PARMA",44.8027,10.329
"0324_14263","addetto agli scaffali/addetta agli scafali","Vendita","Decision Making;Gestione dei cambiamenti;Orientamento al cliente;Comunicazione;Adattabilità al cambiamento",NA,"Inglese","B","CARATE BRIANZA",45.6737,9.23594
"0042_19076","addetto agli scaffali/addetta agli scafali","Grande distribuzione",NA,NA,NA,NA,"VALMADRERA",45.8463,9.35824
"0023_21777","addetto agli scaffali/addetta agli scafali","Magazzino","Team Working",NA,"Italiano",NA,"ZOLA PREDOSA",44.4897,11.2183
"0033_22572","addetto agli scaffali/addetta agli scafali","Magazzino;Produzione","Team Working;Problem solving e analisi;Orientamento alla qualità",NA,"Inglese",NA,"MILANO",45.4773,9.1815
"3102_28562","addetto agli scaffali/addetta agli scafali","Contact Center","Decision Making",NA,NA,"B;A","ZOLA PREDOSA",44.4897,11.2183
"3124_34423","addetto agli scaffali/addetta agli scafali","Grande distribuzione",NA,NA,NA,NA,"MILANO",45.4773,9.1815
"1616_689","Addetto al Confezionamento Farmaceutico","Produzione;Magazzino",NA,NA,"Inglese",NA,"FORNOVO SAN GIOVANNI",45.4978,9.67856
"1529_1242","Addetto al Confezionamento Farmaceutico","Produzione","Team Working",NA,NA,"B","ANAGNI",41.7447,13.1527
"1529_2348","Addetto al Confezionamento Farmaceutico","Produzione","Orientamento al risultato;Team Working;Orientamento alla qualità",NA,NA,"B","ANAGNI",41.7447,13.1527
"0431_13842","Addetto al Confezionamento Farmaceutico","Produzione","Orientamento alla qualità",NA,NA,"B","PARMA",44.8027,10.329
"0431_13843","Addetto al Confezionamento Farmaceutico","Produzione","Orientamento alla qualità",NA,NA,"B","PARMA",44.8027,10.329
"0136_15338","Addetto al Confezionamento Farmaceutico","Guardaroba","Orientamento alla qualità",NA,"Italiano",NA,"BUCINE",43.4764,11.6148
"0116_15671","Addetto al Confezionamento Farmaceutico","Produzione","Team Working;Problem solving e analisi;Orientamento alla qualità",NA,"Italiano","B","LACCHIARELLA",45.3243,9.13905
"0116_15696","Addetto al Confezionamento Farmaceutico","Produzione","Orientamento alla qualità;Team Working;Problem solving e analisi",NA,"Italiano","B","LACCHIARELLA",45.3243,9.13905
"0070_17993","Addetto al Confezionamento Farmaceutico","Chimica;Produzione","Orientamento alla qualità",NA,"Altro",NA,"ROMA",41.8947,12.4839
"0070_18011","Addetto al Confezionamento Farmaceutico","Fogli di calcolo / elettronici;Sistemi Operativi;Posta elettronica/Messaggistica;Industrial;Chimica;Farmaco-Scientifico;Word Processor - Elaborazione testi","Team Working;Problem solving e analisi;Orientamento alla qualità;Comunicazione",NA,"Inglese",NA,"POMEZIA",41.667,12.5052
"0070_18016","Addetto al Confezionamento Farmaceutico","Posta elettronica/Messaggistica;Fogli di calcolo / elettronici;Sistemi Operativi;Farmaco-Scientifico;Word Processor - Elaborazione testi;Chimica;Industrial","Problem solving e analisi;Comunicazione;Orientamento alla qualità;Team Working",NA,"Inglese",NA,"POMEZIA",41.667,12.5052
"0070_18220","Addetto al Confezionamento Farmaceutico","Farmaco-Scientifico;Fogli di calcolo / elettronici;Posta elettronica/Messaggistica;Word Processor - Elaborazione testi;Industrial","Comunicazione;Team Working;Problem solving e analisi;Orientamento alla qualità",NA,"Inglese",NA,"POMEZIA",41.667,12.5052
"0594_19002","Addetto al Confezionamento Farmaceutico","Produzione","Orientamento alla qualità",NA,"Italiano",NA,"CAPRINO VERONESE",45.6049,10.7952
"0070_19120","Addetto al Confezionamento Farmaceutico","Fogli di calcolo / elettronici;Word Processor - Elaborazione testi;Posta elettronica/Messaggistica;Industrial;Farmaco-Scientifico","Comunicazione;Orientamento alla qualità;Team Working;Problem solving e analisi",NA,"Inglese",NA,"POMEZIA",41.667,12.5052
"0070_19751","Addetto al Confezionamento Farmaceutico","Farmaco-Scientifico;Posta elettronica/Messaggistica;Fogli di calcolo / elettronici;Word Processor - Elaborazione testi;Industrial","Problem solving e analisi;Comunicazione;Orientamento alla qualità;Team Working",NA,"Inglese",NA,"POMEZIA",41.667,12.5052
"0254_12643","addetto al ricevimento/addetta al ricevimento","Segreteria;Animazione e sport;Posta elettronica/Messaggistica;Browser per Internet;Ricevimento;Fogli di calcolo / elettronici;Progettazione / Disegno tecnico;Word Processor - Elaborazione testi","Orientamento alla qualità;Comunicazione;Decision Making;Orientamento al cliente",NA,"Inglese;Altro;Tedesco",NA,"TAVAGNACCO",46.1152,13.2359
"0254_12703","addetto al ricevimento/addetta al ricevimento","Progettazione / Disegno tecnico;Word Processor - Elaborazione testi;Fogli di calcolo / elettronici;Animazione e sport;Ricevimento;Browser per Internet;Segreteria;Posta elettronica/Messaggistica","Orientamento alla qualità;Decision Making;Comunicazione;Orientamento al cliente",NA,NA,NA,"TORINO",45.0705,7.68682
"0132_14469","addetto al ricevimento/addetta al ricevimento","Word Processor - Elaborazione testi;Progettazione / Disegno tecnico;Fogli di calcolo / elettronici;Ricevimento;Segreteria","Orientamento alla qualità;Comunicazione;Decision Making;Orientamento al cliente",NA,"Inglese",NA,"CASTELLANA GROTTE",40.8864,17.1655
"0254_14738","addetto al ricevimento/addetta al ricevimento","Ricevimento;Segreteria;Marketing/Comunicazione;Fogli di calcolo / elettronici;Progettazione / Disegno tecnico;Word Processor - Elaborazione testi","Orientamento al cliente;Iniziativa;Spirito Imprenditoriale;Orientamento alla qualità;Orientamento al risultato;Decision Making;Team Working;Comunicazione",NA,"Inglese;Altro;Tedesco",NA,"TORINO",45.0705,7.68682
"0531_15205","addetto al ricevimento/addetta al ricevimento","Animazione e sport;Word Processor - Elaborazione testi;Fogli di calcolo / elettronici;Progettazione / Disegno tecnico;Segreteria;Ricevimento;Browser per Internet;Posta elettronica/Messaggistica","Orientamento alla qualità;Comunicazione;Orientamento al cliente;Decision Making",NA,"Tedesco;Inglese;Altro","B","PESCARA",42.4602,14.2102
"0003_15234","addetto al ricevimento/addetta al ricevimento","Ricevimento;Sistemi di Gestione ;Gestione alberghiera;Sala","Comunicazione;Orientamento alla qualità;Orientamento al cliente",NA,"Altro;Spagnolo;Inglese","B","NAPOLI",40.8333,14.25
"0178_19492","addetto al ricevimento/addetta al ricevimento","Animazione e sport;Fogli di calcolo / elettronici;Browser per Internet;Word Processor - Elaborazione testi;Progettazione / Disegno tecnico;Vendita;Banca;Segreteria;Ricevimento;Posta elettronica/Messaggistica;Contact Center","Orientamento alla qualità;Decision Making;Orientamento al cliente;Gestione dei cambiamenti;Orientamento al risultato;Adattabilità al cambiamento;Problem solving e analisi;Comunicazione",NA,"Inglese;Altro;Tedesco",NA,"SAN MAURIZIO CANAVESE",45.217,7.63052
"0055_19682","addetto al ricevimento/addetta al ricevimento","Fogli di calcolo / elettronici;Word Processor - Elaborazione testi;Progettazione / Disegno tecnico;Ricevimento;Browser per Internet;Segreteria","Orientamento alla qualità;Orientamento al cliente;Decision Making;Comunicazione",NA,NA,"B","CURA CARPIGNANO",45.2125,9.25565
"0023_21344","addetto al ricevimento/addetta al ricevimento","Animazione e sport;Ricevimento;Browser per Internet;Segreteria;Posta elettronica/Messaggistica;Progettazione / Disegno tecnico;Word Processor - Elaborazione testi;Fogli di calcolo / elettronici","Comunicazione;Decision Making;Orientamento al cliente;Orientamento alla qualità",NA,"Inglese",NA,"PISA",43.7155,10.3966
"0262_23397","addetto al ricevimento/addetta al ricevimento","Fogli di calcolo / elettronici;Word Processor - Elaborazione testi;Progettazione / Disegno tecnico;Ricevimento;Segreteria",NA,NA,"Altro;Tedesco;Inglese",NA,"GENOVA",44.4063,8.93386
"0044_25181","addetto al ricevimento/addetta al ricevimento","Ricevimento;Segreteria","Comunicazione;Orientamento al cliente;Orientamento alla qualità",NA,NA,"B","PESCARA",42.4602,14.2102
"1354_865","addetto alla contabilità generale","Contabilità",NA,NA,"Inglese","B","MONZA",45.5825,9.27485
"0106_7796","addetto alla contabilità generale","Contabilità;Fisco ed imposte","Team Working;Problem solving e analisi;Orientamento alla qualità;Pianificazione e organizzazione",NA,NA,"B","GALLARATE",45.6602,8.79164
"0555_9145","addetto alla contabilità generale","Contabilità","Problem solving e analisi;Team Working;Pianificazione e organizzazione;Orientamento alla qualità",NA,"Altro;Inglese",NA,"ALMENNO SAN BARTOLOMEO",45.7427,9.58225
"0970_9392","addetto alla contabilità generale","Amministrazione del personale;Contabilità","Orientamento alla qualità;Team Working;Pianificazione e organizzazione",NA,"Inglese","B","ROSETO DEGLI ABRUZZI",42.6664,14.0227
"0130_11394","addetto alla contabilità generale","Progettazione / Disegno tecnico;Contabilità;Fogli di calcolo / elettronici","Orientamento al risultato;Problem solving e analisi","Diploma / Accademia","Inglese","B","CAVENAGO DI BRIANZA",45.5841,9.41445
"0606_11536","addetto alla contabilità generale","Contabilità","Pianificazione e organizzazione","Diploma / Accademia",NA,NA,"MASERADA SUL PIAVE",45.7519,12.3177
"0139_12095","addetto alla contabilità generale","Contabilità","Problem solving e analisi;Team Working;Pianificazione e organizzazione;Orientamento alla qualità",NA,"Altro;Inglese",NA,"ROMA",41.8947,12.4839
"0139_12688","addetto alla contabilità generale","Altro","Pianificazione e organizzazione;Problem solving e analisi;Team Working;Orientamento alla qualità",NA,NA,NA,"FOGGIA",41.4609,15.5492
"0254_12699","addetto alla contabilità generale","Contabilità","Problem solving e analisi;Orientamento alla qualità;Pianificazione e organizzazione;Team Working",NA,"Altro;Inglese",NA,"TORINO",45.0705,7.68682
"0527_12740","addetto alla contabilità generale","Contabilità","Orientamento alla qualità",NA,"Altro;Inglese","B","SANT'EGIDIO ALLA VIBRATA",42.821,13.7179
"0254_13452","addetto alla contabilità generale","Contabilità","Team Working;Orientamento alla qualità;Pianificazione e organizzazione;Problem solving e analisi",NA,NA,NA,"TORINO",45.0705,7.68682
"0254_13565","addetto alla contabilità generale","Contabilità","Problem solving e analisi;Team Working;Pianificazione e organizzazione;Orientamento alla qualità",NA,"Inglese;Altro",NA,"TORINO",45.0705,7.68682
"0015_16202","addetto alla contabilità generale","Contabilità","Orientamento alla qualità;Problem solving e analisi;Pianificazione e organizzazione;Team Working",NA,NA,NA,"PESCARA",42.4602,14.2102
"0046_16582","addetto alla contabilità generale","Contabilità","Problem solving e analisi;Orientamento alla qualità;Pianificazione e organizzazione;Team Working",NA,"Inglese;Altro","B","POLLA",40.5171,15.498
"0015_16596","addetto alla contabilità generale","Contabilità","Team Working",NA,NA,"B","PESCARA",42.4602,14.2102
"0076_18006","addetto alla contabilità generale","Contabilità","Orientamento alla qualità;Team Working;Pianificazione e organizzazione",NA,NA,NA,"CASAPULLA",41.0753,14.2897
"0103_18503","addetto alla contabilità generale","Contabilità;Magazzino","Orientamento alla qualità;Pianificazione e organizzazione;Team Working;Problem solving e analisi",NA,NA,NA,"ALBA",44.6999,8.0347
"0264_23591","addetto alla contabilità generale","Contabilità","Orientamento alla qualità;Problem solving e analisi;Adattabilità al cambiamento;Comunicazione;Decision Making;Pianificazione e organizzazione;Team Working",NA,NA,NA,"CUVIO",45.8962,8.73413
"0264_24047","addetto alla contabilità generale","Contabilità","Problem solving e analisi;Pianificazione e organizzazione;Orientamento alla qualità;Team Working",NA,"Inglese","B","CARAVATE",45.8789,8.65793
"0123_26096","addetto alla contabilità generale","Contabilità","Orientamento al risultato;Team Working;Problem solving e analisi;Orientamento alla qualità;Pianificazione e organizzazione","Diploma / Accademia",NA,"B","TROFARELLO",44.9837,7.74522
"0300_26103","addetto alla contabilità generale","Contabilità",NA,"Laurea Magistrale",NA,"B","SANTA CROCE SULL'ARNO",43.7553,10.7031
"0154_37983","addetto alla contabilità generale","Contabilità","Orientamento alla qualità;Pianificazione e organizzazione;Team Working;Problem solving e analisi",NA,"Inglese","B","BOSCONERO",45.2669,7.76292
"1797_479","addetto alle pulizie","Igiene / Pulizia;Piani","Adattabilità al cambiamento;Orientamento alla qualità",NA,NA,NA,"ROMA",41.8947,12.4839
"0421_6990","addetto alle pulizie","Igiene / Pulizia;Piani","Adattabilità al cambiamento;Orientamento alla qualità",NA,NA,"B","PAUPISI",41.1953,14.6652
"0357_7639","addetto alle pulizie","Igiene / Pulizia;Piani","Orientamento alla qualità;Adattabilità al cambiamento",NA,NA,NA,"MILANO",45.4773,9.1815
"0357_7655","addetto alle pulizie","Igiene / Pulizia;Piani","Orientamento alla qualità;Adattabilità al cambiamento",NA,NA,NA,"RIETI",42.4072,12.8592
"0555_9446","addetto alle pulizie","Piani;Igiene / Pulizia;Aeroporti","Orientamento alla qualità;Adattabilità al cambiamento",NA,NA,NA,"PONTE SAN PIETRO",45.6963,9.58485
"0301_10089","addetto alle pulizie","Igiene / Pulizia;Aeroporti;Piani","Orientamento alla qualità;Adattabilità al cambiamento",NA,NA,NA,"COMO",45.81,9.08744
"0585_10093","addetto alle pulizie","Piani;Aeroporti;Igiene / Pulizia","Orientamento al cliente;Adattabilità al cambiamento;Orientamento alla qualità",NA,NA,"B","COMO",45.81,9.08744
"0585_10128","addetto alle pulizie","Aeroporti;Igiene / Pulizia;Piani","Orientamento alla qualità;Adattabilità al cambiamento",NA,NA,NA,"MILANO",45.4773,9.1815
"0505_10505","addetto alle pulizie","Igiene / Pulizia;Piani;Aeroporti","Adattabilità al cambiamento;Orientamento alla qualità",NA,NA,NA,"BERGAMO",45.698,9.66895
"0200_10515","addetto alle pulizie","Word Processor - Elaborazione testi;Piani;Aeroporti","Adattabilità al cambiamento;Iniziativa;Team Working;Comunicazione;Orientamento alla qualità",NA,"Italiano","B","SOTTO IL MONTE GIOVANNI XXIII",45.7057,9.50345
"0200_10591","addetto alle pulizie","Word Processor - Elaborazione testi;Piani;Aeroporti","Adattabilità al cambiamento;Iniziativa;Orientamento alla qualità;Team Working;Comunicazione",NA,"Italiano","B","SOTTO IL MONTE GIOVANNI XXIII",45.7057,9.50345
"0322_10700","addetto alle pulizie","Aeroporti;Igiene / Pulizia;Piani","Adattabilità al cambiamento;Orientamento alla qualità",NA,NA,NA,"SESTO FIORENTINO",43.8345,11.1952
"0397_11338","addetto alle pulizie","Aeroporti;Piani;Igiene / Pulizia","Orientamento alla qualità;Adattabilità al cambiamento",NA,NA,NA,"CATANIA",37.5021,15.0872
"0167_11475","addetto alle pulizie","Piani;Aeroporti","Orientamento alla qualità;Adattabilità al cambiamento",NA,NA,"B","SAN DAMIANO D'ASTI",44.8334,8.06353
"0301_11553","addetto alle pulizie","Igiene / Pulizia;Piani","Orientamento alla qualità;Adattabilità al cambiamento",NA,NA,NA,"FIRENZE",43.7667,11.25
"0675_11863","addetto alle pulizie","Piani;Progettazione / Disegno tecnico;Cucina;Igiene / Pulizia","Adattabilità al cambiamento;Orientamento alla qualità;Team Working;Iniziativa;Decision Making",NA,"Inglese;Altro","B","PARMA",44.8027,10.329
"0675_11864","addetto alle pulizie","Igiene / Pulizia;Piani","Adattabilità al cambiamento;Orientamento alla qualità",NA,NA,NA,"PARMA",44.8027,10.329
"0039_11883","addetto alle pulizie","Piani;Igiene / Pulizia;Aeroporti","Adattabilità al cambiamento;Orientamento alla qualità",NA,NA,"B","BOLOGNA",44.4938,11.3387
"0400_12454","addetto alle pulizie","Piani","Orientamento alla qualità;Adattabilità al cambiamento",NA,NA,"B","TRAVERSETOLO",44.6422,10.3772
"0327_12498","addetto alle pulizie","Piani;Igiene / Pulizia","Adattabilità al cambiamento;Orientamento alla qualità",NA,NA,NA,"DESENZANO DEL GARDA",45.468,10.534
"0591_12681","addetto alle pulizie","Igiene / Pulizia;Aeroporti;Piani","Adattabilità al cambiamento;Orientamento alla qualità",NA,NA,NA,"BAGHERIA",38.0793,13.5093
"0607_12861","addetto alle pulizie","Aeroporti;Piani;Igiene / Pulizia","Team Working;Adattabilità al cambiamento;Orientamento alla qualità",NA,NA,"B","VICENZA",45.5573,11.5409
"0254_12991","addetto alle pulizie","Piani;Aeroporti;Igiene / Pulizia","Orientamento alla qualità;Adattabilità al cambiamento",NA,NA,NA,"TORINO",45.0705,7.68682
"0431_13648","addetto alle pulizie","Piani;Igiene / Pulizia","Orientamento alla qualità;Adattabilità al cambiamento",NA,NA,"B","PARMA",44.8027,10.329
"0254_13834","addetto alle pulizie","Piani;Igiene / Pulizia","Adattabilità al cambiamento;Orientamento al cliente;Orientamento alla qualità",NA,"Inglese",NA,"TORINO",45.0705,7.68682
"0431_14032","addetto alle pulizie","Igiene / Pulizia;Piani","Adattabilità al cambiamento;Orientamento alla qualità",NA,NA,"A;B","PARMA",44.8027,10.329
"0037_14762","addetto alle pulizie","Piani","Orientamento alla qualità;Adattabilità al cambiamento",NA,NA,NA,"TORINO",45.0705,7.68682
"0136_14762","addetto alle pulizie","Aeroporti;Igiene / Pulizia",NA,NA,NA,NA,"VENEZIA",45.4386,12.3267
"0302_15335","addetto alle pulizie","Piani;Igiene / Pulizia;Aeroporti","Adattabilità al cambiamento;Orientamento alla qualità",NA,NA,"B","MILANO",45.4773,9.1815
"0015_15381","addetto alle pulizie","Aeroporti;Piani","Adattabilità al cambiamento;Orientamento alla qualità",NA,NA,NA,"PESCARA",42.4602,14.2102
"0188_15392","addetto alle pulizie","Igiene / Pulizia;Aeroporti;Piani","Adattabilità al cambiamento;Orientamento alla qualità",NA,NA,"B","LOMBRIASCO",44.8409,7.63592
"0032_15517","addetto alle pulizie","Piani;Igiene / Pulizia","Adattabilità al cambiamento;Orientamento alla qualità",NA,NA,NA,"CUNEO",44.3973,7.54453
"0111_15641","addetto alle pulizie","Piani;Igiene / Pulizia","Orientamento alla qualità;Adattabilità al cambiamento",NA,NA,"B","BUSSOLENGO",45.4692,10.8506
"0015_15773","addetto alle pulizie","Aeroporti;Piani","Adattabilità al cambiamento;Orientamento alla qualità",NA,NA,NA,"PESCARA",42.4602,14.2102
"0015_15794","addetto alle pulizie","Piani;Aeroporti","Adattabilità al cambiamento;Orientamento alla qualità",NA,NA,NA,"PESCARA",42.4602,14.2102
"0015_15898","addetto alle pulizie","Aeroporti;Piani;Igiene / Pulizia","Adattabilità al cambiamento;Orientamento alla qualità",NA,NA,"B","CITTA' SANT'ANGELO",42.5192,14.0602
"0190_15924","addetto alle pulizie","Piani","Orientamento alla qualità;Adattabilità al cambiamento",NA,NA,NA,"CURNO",45.689,9.60705
"0319_16034","addetto alle pulizie","Igiene / Pulizia;Piani","Orientamento alla qualità;Adattabilità al cambiamento",NA,"Italiano",NA,"BORGOSATOLLO",45.4808,10.2411
"0126_16169","addetto alle pulizie","Piani;Igiene / Pulizia","Orientamento alla qualità;Adattabilità al cambiamento",NA,NA,"B","ARMENO",45.8208,8.44557
"0335_16318","addetto alle pulizie","Piani;Igiene / Pulizia;Aeroporti","Adattabilità al cambiamento;Orientamento alla qualità",NA,"Italiano",NA,"POIRINO",44.9208,7.84693
"0183_16573","addetto alle pulizie","Piani;Igiene / Pulizia","Orientamento alla qualità;Adattabilità al cambiamento",NA,NA,NA,"MONTICHIARI",45.4152,10.3907
"0284_16848","addetto alle pulizie","Igiene / Pulizia;Piani","Adattabilità al cambiamento;Orientamento alla qualità",NA,NA,"B","VERONA",45.4342,10.9978
"0015_16880","addetto alle pulizie","Piani;Igiene / Pulizia","Adattabilità al cambiamento;Orientamento alla qualità",NA,NA,NA,"CEPAGATTI",42.3649,14.0758
"0015_16912","addetto alle pulizie","Igiene / Pulizia;Piani","Adattabilità al cambiamento;Orientamento alla qualità",NA,NA,NA,"ORTONA",42.3496,14.4039
"0015_17067","addetto alle pulizie","Igiene / Pulizia;Piani;Altro","Adattabilità al cambiamento;Orientamento alla qualità",NA,NA,NA,"SAN GIOVANNI TEATINO",42.4091,14.201
"0358_17283","addetto alle pulizie","Piani;Igiene / Pulizia","Orientamento alla qualità;Adattabilità al cambiamento",NA,NA,"B","MERONE",45.7872,9.24404
"0160_17526","addetto alle pulizie","Piani","Orientamento alla qualità;Adattabilità al cambiamento",NA,NA,NA,"MODUGNO",41.0974,16.778
"0176_17581","addetto alle pulizie","Aeroporti;Piani;Igiene / Pulizia","Orientamento alla qualità;Adattabilità al cambiamento",NA,NA,"B","BRONI",45.0655,9.26226
"0204_17622","addetto alle pulizie","Igiene / Pulizia;Produzione;Piani","Orientamento alla qualità;Adattabilità al cambiamento",NA,NA,"B","VICENZA",45.5573,11.5409
"0335_17718","addetto alle pulizie","Piani;Igiene / Pulizia","Adattabilità al cambiamento;Orientamento alla qualità",NA,"Italiano","B","TORINO",45.0705,7.68682
"0335_17753","addetto alle pulizie","Piani;Igiene / Pulizia","Orientamento alla qualità;Adattabilità al cambiamento",NA,"Italiano","B","TORINO",45.0705,7.68682
"0298_18438","addetto alle pulizie","Aeroporti;Piani;Igiene / Pulizia","Orientamento alla qualità;Adattabilità al cambiamento",NA,NA,"B","CHIETI",42.3609,14.138
"0114_18501","addetto alle pulizie","Aeroporti;Piani","Orientamento alla qualità;Adattabilità al cambiamento",NA,NA,NA,"MERATE",45.6987,9.41165
"0166_18911","addetto alle pulizie","Igiene / Pulizia;Piani","Orientamento alla qualità;Adattabilità al cambiamento",NA,NA,"B","SAINT-VINCENT",45.7513,7.64861
"0055_19323","addetto alle pulizie","Aeroporti;Igiene / Pulizia;Piani","Adattabilità al cambiamento;Orientamento alla qualità",NA,NA,NA,"ROVIGO",45.08,11.793
"0055_19373","addetto alle pulizie","Igiene / Pulizia;Piani","Adattabilità al cambiamento;Orientamento alla qualità",NA,NA,NA,"MILANO",45.4773,9.1815
"0033_19399","addetto alle pulizie","Igiene / Pulizia;Aeroporti;Piani","Orientamento alla qualità;Adattabilità al cambiamento",NA,NA,"B","ZOLA PREDOSA",44.4897,11.2183
"0042_19442","addetto alle pulizie","Igiene / Pulizia;Piani","Pianificazione e organizzazione;Orientamento alla qualità;Adattabilità al cambiamento",NA,NA,NA,"MILANO",45.4773,9.1815
"0594_19516","addetto alle pulizie","Piani","Adattabilità al cambiamento;Orientamento alla qualità",NA,NA,NA,"BOLOGNA",44.4938,11.3387
"0055_19624","addetto alle pulizie","Igiene / Pulizia;Piani","Adattabilità al cambiamento;Orientamento alla qualità",NA,NA,NA,"OSIO SOTTO",45.6161,9.58905
"0178_20066","addetto alle pulizie","Aeroporti;Igiene / Pulizia;Piani","Adattabilità al cambiamento;Orientamento alla qualità",NA,NA,NA,"BORGARO TORINESE",45.1483,7.65672
"0376_20068","addetto alle pulizie","Igiene / Pulizia;Piani;Aeroporti","Orientamento alla qualità;Adattabilità al cambiamento",NA,NA,"B","ORBASSANO",45.0038,7.53992
"0178_20568","addetto alle pulizie","Piani;Igiene / Pulizia","Adattabilità al cambiamento;Orientamento alla qualità",NA,NA,NA,"BORGARO TORINESE",45.1483,7.65672
"0178_20578","addetto alle pulizie","Piani;Igiene / Pulizia","Orientamento alla qualità;Adattabilità al cambiamento",NA,NA,NA,"BORGARO TORINESE",45.1483,7.65672
"0055_20837","addetto alle pulizie","Piani","Orientamento alla qualità;Adattabilità al cambiamento",NA,NA,NA,"TORINO",45.0705,7.68682
"0178_20873","addetto alle pulizie","Igiene / Pulizia","Orientamento alla qualità;Adattabilità al cambiamento",NA,NA,NA,"BORGARO TORINESE",45.1483,7.65672
"0262_21225","addetto alle pulizie","Igiene / Pulizia;Piani;Aeroporti","Adattabilità al cambiamento;Orientamento alla qualità",NA,NA,NA,"ROMA",41.8947,12.4839
"0033_22104","addetto alle pulizie","Piani;Igiene / Pulizia","Orientamento alla qualità;Adattabilità al cambiamento",NA,NA,"B","ZOLA PREDOSA",44.4897,11.2183
"0354_22259","addetto alle pulizie","Piani;Igiene / Pulizia","Adattabilità al cambiamento;Orientamento alla qualità",NA,NA,NA,"GHEDI",45.4011,10.2793
"0450_22297","addetto alle pulizie","Igiene / Pulizia",NA,NA,"Italiano","B","CASTELLANZA",45.6124,8.90114
"0065_22329","addetto alle pulizie","Piani;Igiene / Pulizia","Orientamento alla qualità;Adattabilità al cambiamento",NA,NA,NA,"VENEZIA",45.4386,12.3267
"0047_22371","addetto alle pulizie","Igiene / Pulizia;Magazzino","Team Working;Orientamento alla qualità;Adattabilità al cambiamento;Orientamento al risultato",NA,NA,"B","COLLEFERRO",41.7262,13.0036
"0262_22416","addetto alle pulizie","Piani;Igiene / Pulizia",NA,NA,NA,"B","GALLARATE",45.6602,8.79164
"0553_22533","addetto alle pulizie","Piani;Igiene / Pulizia","Orientamento alla qualità;Adattabilità al cambiamento",NA,NA,"B","BRICHERASIO",44.8235,7.30542
"0065_22569","addetto alle pulizie","Piani;Igiene / Pulizia","Adattabilità al cambiamento;Orientamento alla qualità",NA,NA,NA,"GAMBUGLIANO",45.588,11.4386
"0065_22597","addetto alle pulizie","Igiene / Pulizia;Piani","Adattabilità al cambiamento;Orientamento alla qualità",NA,NA,NA,"PADOVA",45.4152,11.8818
"0023_22680","addetto alle pulizie","Piani;Igiene / Pulizia","Orientamento alla qualità;Adattabilità al cambiamento",NA,NA,NA,"MILANO",45.4773,9.1815
"0264_22927","addetto alle pulizie","Piani;Aeroporti","Orientamento alla qualità;Adattabilità al cambiamento",NA,NA,"B","LEGGIUNO",45.8759,8.62063
"0346_24044","addetto alle pulizie","Piani","Orientamento alla qualità;Adattabilità al cambiamento",NA,NA,NA,"GENZANO DI ROMA",41.7013,12.6918
"0123_25868","addetto alle pulizie","Piani;Aeroporti","Orientamento alla qualità;Adattabilità al cambiamento",NA,NA,"B","TORINO",45.0705,7.68682
"0123_26461","addetto alle pulizie","Piani;Igiene / Pulizia","Team Working;Orientamento alla qualità",NA,NA,"B","GRUGLIASCO",45.0681,7.57762
"0123_26506","addetto alle pulizie","Piani","Adattabilità al cambiamento;Orientamento alla qualità",NA,NA,"B","SAN DONATO MILANESE",45.4199,9.26628
"0154_37508","addetto alle pulizie","Aeroporti;Piani;Igiene / Pulizia","Orientamento alla qualità;Adattabilità al cambiamento",NA,NA,"B","MILANO",45.4773,9.1815
"3124_38404","addetto alle pulizie","Aeroporti;Igiene / Pulizia;Piani","Orientamento alla qualità;Adattabilità al cambiamento",NA,NA,NA,"MILANO",45.4773,9.1815
"3124_38746","addetto alle pulizie","Igiene / Pulizia;Aeroporti;Piani","Adattabilità al cambiamento;Orientamento alla qualità",NA,NA,NA,"ZOLA PREDOSA",44.4897,11.2183
"3124_39040","addetto alle pulizie","Aeroporti;Piani;Igiene / Pulizia","Adattabilità al cambiamento;Orientamento alla qualità",NA,NA,NA,"CINISELLO BALSAMO",45.5571,9.22185
"3124_39480","addetto alle pulizie","Piani;Igiene / Pulizia","Orientamento al cliente;Orientamento alla qualità;Adattabilità al cambiamento",NA,"Inglese",NA,"MILANO",45.4773,9.1815
"3124_39651","addetto alle pulizie","Igiene / Pulizia;Piani","Orientamento alla qualità;Adattabilità al cambiamento",NA,NA,NA,"MILANO",45.4773,9.1815
"0544_41090","addetto alle pulizie","Piani;Aeroporti;Igiene / Pulizia","Adattabilità al cambiamento;Orientamento alla qualità",NA,NA,"B","PIANEZZA",45.1059,7.54342
"0544_41485","addetto alle pulizie","Produzione;Igiene / Pulizia;Piani;Aeroporti","Orientamento alla qualità;Adattabilità al cambiamento",NA,NA,"B","COLLEGNO",45.0775,7.57242
"1280_715","addetto alle spedizioni merci","Segreteria;Vendita","Comunicazione;Decision Making;Pianificazione e organizzazione;Adattabilità al cambiamento;Problem solving e analisi",NA,"Inglese","B","SAN GIULIANO MILANESE",45.3957,9.28757
"1280_724","addetto alle spedizioni merci","Vendita;Segreteria","Pianificazione e organizzazione;Adattabilità al cambiamento;Comunicazione;Decision Making;Problem solving e analisi",NA,"Inglese","B","SAN GIULIANO MILANESE",45.3957,9.28757
"1280_760","addetto alle spedizioni merci","Segreteria;Vendita","Decision Making;Comunicazione;Adattabilità al cambiamento;Problem solving e analisi;Pianificazione e organizzazione",NA,"Inglese","B","SAN GIULIANO MILANESE",45.3957,9.28757
"1280_771","addetto alle spedizioni merci","Fogli di calcolo / elettronici;Segreteria;Vendita","Pianificazione e organizzazione;Comunicazione;Adattabilità al cambiamento;Problem solving e analisi;Decision Making",NA,"Inglese","B","SAN GIULIANO MILANESE",45.3957,9.28757
"1280_881","addetto alle spedizioni merci","Vendita;Segreteria","Decision Making;Problem solving e analisi;Pianificazione e organizzazione;Comunicazione;Adattabilità al cambiamento",NA,"Inglese","B","SAN GIULIANO MILANESE",45.3957,9.28757
"1280_894","addetto alle spedizioni merci","Vendita;Segreteria","Adattabilità al cambiamento;Pianificazione e organizzazione;Decision Making;Problem solving e analisi;Comunicazione",NA,"Inglese","B","SAN GIULIANO MILANESE",45.3957,9.28757
"1280_925","addetto alle spedizioni merci","Vendita;Segreteria","Problem solving e analisi;Decision Making;Comunicazione;Pianificazione e organizzazione;Adattabilità al cambiamento",NA,"Inglese","B","SAN GIULIANO MILANESE",45.3957,9.28757
"1280_948","addetto alle spedizioni merci","Vendita;Segreteria","Problem solving e analisi;Comunicazione;Decision Making;Adattabilità al cambiamento;Pianificazione e organizzazione",NA,"Inglese","B","SAN GIULIANO MILANESE",45.3957,9.28757
"1280_955","addetto alle spedizioni merci","Segreteria;Vendita","Problem solving e analisi;Decision Making;Comunicazione;Pianificazione e organizzazione;Adattabilità al cambiamento",NA,"Inglese","B","SAN GIULIANO MILANESE",45.3957,9.28757
"1280_959","addetto alle spedizioni merci","Segreteria;Vendita","Adattabilità al cambiamento;Comunicazione;Problem solving e analisi;Pianificazione e organizzazione;Decision Making",NA,"Inglese",NA,"SAN GIULIANO MILANESE",45.3957,9.28757
"1280_962","addetto alle spedizioni merci","Segreteria;Vendita","Adattabilità al cambiamento;Decision Making;Comunicazione;Problem solving e analisi;Pianificazione e organizzazione",NA,"Inglese","B","SAN GIULIANO MILANESE",45.3957,9.28757
"1280_986","addetto alle spedizioni merci","Segreteria;Vendita;Sistemi di Gestione ;Database;Posta elettronica/Messaggistica;Sistemi Operativi","Orientamento al risultato;Problem solving e analisi;Comunicazione;Adattabilità al cambiamento;Pianificazione e organizzazione;Decision Making;Orientamento al cliente;Team Working",NA,"Inglese","B","SAN GIULIANO MILANESE",45.3957,9.28757
"1280_1008","addetto alle spedizioni merci","Segreteria;Vendita","Adattabilità al cambiamento;Problem solving e analisi;Comunicazione;Pianificazione e organizzazione;Decision Making",NA,"Inglese","B","SAN GIULIANO MILANESE",45.3957,9.28757
"1280_1021","addetto alle spedizioni merci","Vendita;Segreteria","Comunicazione;Pianificazione e organizzazione;Adattabilità al cambiamento;Decision Making;Problem solving e analisi",NA,"Inglese","B","SAN GIULIANO MILANESE",45.3957,9.28757
"1280_1030","addetto alle spedizioni merci","Segreteria;Vendita","Decision Making;Adattabilità al cambiamento;Problem solving e analisi;Pianificazione e organizzazione;Comunicazione",NA,"Inglese","B","SAN GIULIANO MILANESE",45.3957,9.28757
"1280_1057","addetto alle spedizioni merci","Vendita;Segreteria","Comunicazione;Pianificazione e organizzazione;Adattabilità al cambiamento;Decision Making;Problem solving e analisi",NA,"Inglese","B","SAN GIULIANO MILANESE",45.3957,9.28757
"1280_1061","addetto alle spedizioni merci","Vendita;Segreteria","Problem solving e analisi;Adattabilità al cambiamento;Pianificazione e organizzazione;Decision Making;Comunicazione",NA,"Inglese","B","SAN GIULIANO MILANESE",45.3957,9.28757
"1280_1144","addetto alle spedizioni merci","Vendita;Segreteria","Comunicazione;Problem solving e analisi;Decision Making;Pianificazione e organizzazione;Adattabilità al cambiamento",NA,"Inglese",NA,"SAN GIULIANO MILANESE",45.3957,9.28757
"1280_1218","addetto alle spedizioni merci","Segreteria;Vendita","Pianificazione e organizzazione;Comunicazione;Adattabilità al cambiamento;Decision Making;Problem solving e analisi",NA,"Inglese",NA,"SAN GIULIANO MILANESE",45.3957,9.28757
"0400_11098","addetto alle spedizioni merci","Vendita;Segreteria","Problem solving e analisi;Adattabilità al cambiamento;Decision Making;Comunicazione;Pianificazione e organizzazione",NA,"Inglese",NA,"FELINO",44.6958,10.2411
"0452_16505","addetto alle spedizioni merci","Animazione e sport;Progettazione / Disegno tecnico;Word Processor - Elaborazione testi;Vendita;Posta elettronica/Messaggistica;Browser per Internet;Ricevimento;Fogli di calcolo / elettronici;Segreteria","Iniziativa;Decision Making;Orientamento al risultato;Orientamento alla qualità;Pianificazione e organizzazione;Comunicazione;Orientamento al cliente;Problem solving e analisi;Adattabilità al cambiamento",NA,"Spagnolo;Inglese","B","MILANO",45.4773,9.1815
"0457_21298","addetto alle spedizioni merci","Vendita;Segreteria","Decision Making;Problem solving e analisi;Adattabilità al cambiamento;Comunicazione;Pianificazione e organizzazione",NA,"Inglese","B","CASALOLDO",45.2548,10.4744
"0044_23036","addetto alle spedizioni merci","Fogli di calcolo / elettronici;Word Processor - Elaborazione testi;Progettazione / Disegno tecnico;Contabilità;Aeroporti;Trasporti;Browser per Internet;Magazzino;Posta elettronica/Messaggistica;Vendita;Segreteria","Orientamento al cliente;Problem solving e analisi;Orientamento alla qualità;Team Working;Comunicazione;Adattabilità al cambiamento;Pianificazione e organizzazione;Decision Making","Laurea Triennale;Diploma / Accademia","Inglese",NA,"PODENZANO",44.9564,9.68497
"0421_7152","addetto carico/scarico","Magazzino","Orientamento alla qualità",NA,NA,NA,"BENEVENTO",41.1295,14.7861
"0445_8763","addetto carico/scarico","Magazzino","Orientamento alla qualità",NA,NA,NA,"COSTA DI MEZZATE",45.662,9.79396
"0970_9726","addetto carico/scarico","Magazzino","Orientamento alla qualità",NA,NA,"B","ATRI",42.5778,13.9848
"0595_11849","addetto carico/scarico","Magazzino","Orientamento alla qualità",NA,NA,NA,"SAN GIULIANO MILANESE",45.3957,9.28757
"0367_12229","addetto carico/scarico","Magazzino","Orientamento alla qualità",NA,NA,NA,"SPINETOLI",42.8914,13.7702
"0132_14651","addetto carico/scarico","Acquisti;Vendita;Magazzino;Posta elettronica/Messaggistica;Fogli di calcolo / elettronici","Orientamento alla qualità;Orientamento al risultato;Problem solving e analisi",NA,NA,NA,"BARI",41.1177,16.8512
"0122_15183","addetto carico/scarico","Magazzino","Orientamento alla qualità",NA,NA,NA,"CASALETTO VAPRIO",45.4082,9.62876
"0126_16070","addetto carico/scarico","Magazzino","Orientamento alla qualità",NA,NA,"B","POGNO",45.7556,8.38462
"0541_17095","addetto carico/scarico","Piani;Ricevimento;Magazzino","Orientamento alla qualità;Orientamento al risultato;Team Working;Problem solving e analisi",NA,"Inglese",NA,"MILANO",45.4773,9.1815
"0015_17131","addetto carico/scarico","Magazzino","Team Working;Problem solving e analisi",NA,NA,"B","SAN GIOVANNI TEATINO",42.4091,14.201
"0095_17448","addetto carico/scarico","Magazzino","Orientamento alla qualità",NA,NA,NA,"PERUGIA",43.1122,12.3888
"0298_18724","addetto carico/scarico","Magazzino","Orientamento al risultato;Orientamento alla qualità",NA,NA,NA,"CEPAGATTI",42.3649,14.0758
"0298_18882","addetto carico/scarico","Magazzino","Team Working;Problem solving e analisi;Orientamento alla qualità",NA,"Italiano",NA,"MANOPPELLO",42.2576,14.06
"0137_31388","addetto carico/scarico","Magazzino","Team Working;Orientamento alla qualità;Orientamento al risultato",NA,"Inglese","B","LAVIS",46.1395,11.1129
"1721_199","addetto controllo qualità prodotti","Produzione;Sicurezza / Qualità;Meccanica","Iniziativa;Orientamento alla qualità;Decision Making;Problem solving e analisi",NA,NA,"B","BOFFALORA SOPRA TICINO",45.4674,8.83095
"1721_204","addetto controllo qualità prodotti","Produzione;Sicurezza / Qualità","Iniziativa;Orientamento alla qualità;Problem solving e analisi;Decision Making",NA,NA,"B","BOFFALORA SOPRA TICINO",45.4674,8.83095
"1721_207","addetto controllo qualità prodotti","Sicurezza / Qualità;Produzione","Orientamento al risultato;Orientamento alla qualità;Iniziativa;Team Working",NA,NA,"B","BOFFALORA SOPRA TICINO",45.4674,8.83095
"1721_216","addetto controllo qualità prodotti","Sicurezza / Qualità;Produzione","Iniziativa;Orientamento al risultato;Orientamento alla qualità;Problem solving e analisi;Team Working",NA,NA,"B","BOFFALORA SOPRA TICINO",45.4674,8.83095
"1721_232","addetto controllo qualità prodotti","Produzione","Orientamento al risultato;Iniziativa;Team Working;Orientamento alla qualità",NA,NA,"B","BOFFALORA SOPRA TICINO",45.4674,8.83095
"1354_448","addetto controllo qualità prodotti","Produzione;Sicurezza / Qualità","Orientamento alla qualità",NA,NA,"B","MONZA",45.5825,9.27485
"1354_487","addetto controllo qualità prodotti","Sicurezza / Qualità;Produzione","Orientamento alla qualità",NA,NA,"B","MONZA",45.5825,9.27485
"1354_565","addetto controllo qualità prodotti","Produzione;Sicurezza / Qualità","Orientamento alla qualità",NA,NA,"B","MONZA",45.5825,9.27485
"1526_687","addetto controllo qualità prodotti","Produzione","Orientamento alla qualità",NA,NA,NA,"REGGIO NELL'EMILIA",44.6982,10.6313
"1354_891","addetto controllo qualità prodotti","Produzione","Orientamento alla qualità",NA,NA,"B","MONZA",45.5825,9.27485
"1350_1470","addetto controllo qualità prodotti","Word Processor - Elaborazione testi;Produzione;Browser per Internet;Fogli di calcolo / elettronici;Posta elettronica/Messaggistica;Sicurezza / Qualità;Farmaco-Scientifico;Chimica","Team Working;Comunicazione;Problem solving e analisi;Orientamento alla qualità",NA,"Inglese",NA,"APRILIA",41.5895,12.6501
"0462_11062","addetto controllo qualità prodotti","Produzione;Sicurezza / Qualità","Team Working;Orientamento alla qualità;Problem solving e analisi",NA,NA,NA,"VICENZA",45.5573,11.5409
"0301_11203","addetto controllo qualità prodotti","Produzione;Sicurezza / Qualità","Orientamento alla qualità",NA,NA,"B","SESTO FIORENTINO",43.8345,11.1952
"0139_12444","addetto controllo qualità prodotti","Produzione","Orientamento al risultato;Orientamento alla qualità;Iniziativa;Decision Making;Problem solving e analisi;Team Working","Laurea Triennale","Italiano","B","FOGGIA",41.4609,15.5492
"0374_13070","addetto controllo qualità prodotti","Produzione;Sicurezza / Qualità","Orientamento alla qualità","Laurea Magistrale",NA,NA,"L'AQUILA",42.3506,13.3995
"0286_13292","addetto controllo qualità prodotti","Produzione","Orientamento alla qualità",NA,NA,NA,"BARLETTA",41.3118,16.2908
"0286_13310","addetto controllo qualità prodotti","Produzione","Orientamento alla qualità",NA,NA,NA,"BARLETTA",41.3118,16.2908
"0165_14581","addetto controllo qualità prodotti","Produzione;Sicurezza / Qualità","Orientamento alla qualità",NA,NA,NA,"GHISALBA",45.5948,9.75926
"0122_15549","addetto controllo qualità prodotti","Tessile;Sicurezza / Qualità;Produzione","Adattabilità al cambiamento",NA,NA,NA,"SONCINO",45.4001,9.86976
"0319_15802","addetto controllo qualità prodotti","Produzione;Sicurezza / Qualità","Orientamento alla qualità",NA,NA,"B","CAPRIANO DEL COLLE",45.4748,10.1323
"0319_15901","addetto controllo qualità prodotti","Produzione;Sicurezza / Qualità","Team Working;Orientamento alla qualità",NA,"Italiano","B","DELLO",45.4203,10.0775
"0335_16949","addetto controllo qualità prodotti","Produzione;Sicurezza / Qualità","Orientamento alla qualità",NA,"Italiano","B","VILLANOVA D'ASTI",44.9418,7.93713
"0035_17310","addetto controllo qualità prodotti","Produzione","Orientamento alla qualità",NA,NA,"B","LISSONE",45.6124,9.23985
"0415_19183","addetto controllo qualità prodotti","Produzione","Orientamento alla qualità;Problem solving e analisi;Team Working","Diploma / Accademia",NA,"B","ROSSANO VENETO",45.7058,11.806
"0548_19202","addetto controllo qualità prodotti","Produzione","Orientamento alla qualità;Problem solving e analisi","Istituto Tecnico Superiore (ITS)",NA,"B","TRONZANO VERCELLESE",45.3413,8.17303
"0178_20294","addetto controllo qualità prodotti","Produzione;Sicurezza / Qualità","Orientamento alla qualità",NA,NA,NA,"DRUENTO",45.1348,7.57662
"0499_21160","addetto controllo qualità prodotti","Sicurezza / Qualità;Produzione","Orientamento alla qualità",NA,NA,NA,"LIVORNO",43.5426,10.316
"0499_21187","addetto controllo qualità prodotti","Sicurezza / Qualità;Produzione","Orientamento alla qualità",NA,NA,NA,"LIVORNO",43.5426,10.316
"0300_26445","addetto controllo qualità prodotti","Sicurezza / Qualità;Produzione;Fogli di calcolo / elettronici;Database","Decision Making;Comunicazione;Orientamento alla qualità;Problem solving e analisi",NA,NA,"B","VICOPISANO",43.6872,10.5811
"0300_26627","addetto controllo qualità prodotti","Database;Sicurezza / Qualità;Fogli di calcolo / elettronici;Produzione","Decision Making;Orientamento alla qualità;Problem solving e analisi;Comunicazione",NA,NA,"B","VICOPISANO",43.6872,10.5811
"0397_10624","Addetto Fast Food","Sala;Cucina;Grande distribuzione;Vendita","Decision Making;Problem solving e analisi;Orientamento alla qualità;Gestione dei cambiamenti;Comunicazione;Team Working;Orientamento al cliente;Adattabilità al cambiamento",NA,NA,"B","CARUGATE",45.5498,9.34375
"0292_10856","Addetto Fast Food","Cucina;Grande distribuzione;Sala","Team Working;Orientamento alla qualità;Orientamento al cliente;Problem solving e analisi;Decision Making",NA,"Inglese;Altro",NA,"COLOGNO MONZESE",45.53,9.27795
"0178_19944","Addetto Fast Food","Grande distribuzione;Sala;Cucina","Orientamento alla qualità;Team Working",NA,NA,NA,"TORINO",45.0705,7.68682
"0178_19991","Addetto Fast Food","Sala;Cucina;Grande distribuzione","Orientamento alla qualità;Team Working",NA,NA,NA,"TORINO",45.0705,7.68682
"0178_20069","Addetto Fast Food","Grande distribuzione;Sala;Cucina","Orientamento alla qualità;Team Working",NA,NA,NA,"TORINO",45.0705,7.68682
"0178_20119","Addetto Fast Food","Grande distribuzione;Sala;Cucina","Orientamento alla qualità;Team Working",NA,NA,NA,"TORINO",45.0705,7.68682
"0178_20170","Addetto Fast Food","Cucina;Sala;Grande distribuzione","Team Working;Orientamento alla qualità",NA,NA,NA,"TORINO",45.0705,7.68682
"0178_20427","Addetto Fast Food","Sala;Grande distribuzione;Cucina","Orientamento alla qualità;Team Working",NA,NA,NA,"TORINO",45.0705,7.68682
"0178_20448","Addetto Fast Food","Cucina;Grande distribuzione;Sala","Orientamento alla qualità;Team Working",NA,NA,NA,"TORINO",45.0705,7.68682
"0178_20497","Addetto Fast Food","Cucina;Sala;Grande distribuzione","Orientamento alla qualità;Team Working",NA,NA,NA,"TORINO",45.0705,7.68682
"0178_20608","Addetto Fast Food","Grande distribuzione;Cucina;Sala","Orientamento alla qualità;Team Working",NA,NA,NA,"TORINO",45.0705,7.68682
"0499_20973","Addetto Fast Food","Cucina","Orientamento alla qualità;Comunicazione;Team Working;Orientamento al cliente;Orientamento al risultato",NA,"Italiano",NA,"LIVORNO",43.5426,10.316
"0499_21055","Addetto Fast Food","Cucina","Orientamento alla qualità;Orientamento al cliente;Comunicazione;Team Working;Orientamento al risultato",NA,"Italiano",NA,"LIVORNO",43.5426,10.316
"0499_21142","Addetto Fast Food","Cucina","Orientamento al risultato;Comunicazione;Orientamento al cliente;Team Working;Orientamento alla qualità",NA,"Italiano",NA,"LIVORNO",43.5426,10.316
"0499_21280","Addetto Fast Food","Cucina","Orientamento al risultato;Orientamento alla qualità;Team Working;Orientamento al cliente;Comunicazione",NA,"Italiano",NA,"LIVORNO",43.5426,10.316
"0499_21372","Addetto Fast Food","Cucina","Orientamento alla qualità;Orientamento al cliente;Team Working;Orientamento al risultato;Comunicazione",NA,"Italiano",NA,"LIVORNO",43.5426,10.316
"0499_21627","Addetto Fast Food","Sala;Cucina;Grande distribuzione","Team Working;Orientamento alla qualità",NA,NA,NA,"LIVORNO",43.5426,10.316
"0323_24227","Addetto Fast Food","Sala;Grande distribuzione;Cucina","Orientamento alla qualità;Team Working",NA,NA,"B","SENIGALLIA",43.7093,13.2167
"0300_24732","Addetto Fast Food","Sala;Cucina;Grande distribuzione","Team Working;Decision Making;Orientamento alla qualità;Orientamento al cliente",NA,NA,NA,"CAMAIORE",43.9097,10.2419
"0300_25243","Addetto Fast Food","Grande distribuzione;Sala","Orientamento al cliente;Team Working;Orientamento alla qualità",NA,"Italiano",NA,"CAMAIORE",43.9097,10.2419
"3127_30952","Addetto Fast Food","Grande distribuzione;Sala;Cucina","Orientamento alla qualità;Team Working",NA,NA,NA,"CASTELVETRO DI MODENA",44.5058,10.9464
"3127_31029","Addetto Fast Food","Grande distribuzione;Aeroporti;Sala;Piani;Igiene / Pulizia;Cucina","Team Working;Orientamento alla qualità;Adattabilità al cambiamento",NA,NA,NA,"CASTELVETRO DI MODENA",44.5058,10.9464
"3127_31147","Addetto Fast Food","Cucina;Sala;Grande distribuzione","Team Working;Orientamento alla qualità",NA,NA,NA,"CASTELVETRO DI MODENA",44.5058,10.9464
"3102_32222","Addetto Fast Food","Sala;Cucina;Grande distribuzione","Orientamento alla qualità;Team Working",NA,NA,"B","MILANO",45.4773,9.1815
"3124_37966","Addetto Fast Food","Sala;Cucina;Grande distribuzione","Orientamento alla qualità;Team Working",NA,NA,NA,"CASTELVETRO DI MODENA",44.5058,10.9464
"3124_38361","Addetto Fast Food","Sala;Grande distribuzione;Cucina","Orientamento alla qualità;Team Working",NA,NA,"B","CASTELVETRO DI MODENA",44.5058,10.9464
"3124_38396","Addetto Fast Food","Sala;Grande distribuzione;Cucina","Orientamento alla qualità;Team Working",NA,NA,NA,"CASTELVETRO DI MODENA",44.5058,10.9464
"3124_38397","Addetto Fast Food","Grande distribuzione;Cucina;Sala","Orientamento alla qualità;Team Working",NA,NA,NA,"CASTELVETRO DI MODENA",44.5058,10.9464
"0544_42026","Addetto Fast Food","Grande distribuzione;Sala;Cucina","Team Working;Orientamento alla qualità",NA,NA,NA,"TORINO",45.0705,7.68682
"0544_42104","Addetto Fast Food","Grande distribuzione;Sala;Cucina","Orientamento alla qualità;Team Working",NA,NA,NA,"TORINO",45.0705,7.68682
"1743_165","Addetto Mensa","Cucina","Team Working;Orientamento alla qualità",NA,NA,NA,"CARUGATE",45.5498,9.34375
"0381_10245","Addetto Mensa","Cucina","Team Working;Orientamento alla qualità",NA,NA,"B","REGGIO NELL'EMILIA",44.6982,10.6313
"0050_10252","Addetto Mensa","Cucina","Orientamento alla qualità;Team Working",NA,NA,NA,"CINISELLO BALSAMO",45.5571,9.22185
"0167_11732","Addetto Mensa","Sala;Cucina","Team Working;Decision Making;Orientamento alla qualità",NA,NA,NA,"MONCALIERI",44.9963,7.69032
"0039_11793","Addetto Mensa","Cucina","Orientamento alla qualità;Team Working",NA,"Italiano","B","MILANO",45.4773,9.1815
"0039_11958","Addetto Mensa","Cucina","Orientamento alla qualità;Team Working",NA,"Italiano","B","MILANO",45.4773,9.1815
"0518_13079","Addetto Mensa","Cucina","Orientamento alla qualità;Team Working",NA,NA,"B","SAN SALVO",42.0433,14.7272
"0286_13446","Addetto Mensa","Cucina","Team Working;Orientamento alla qualità",NA,NA,"B","MILANO",45.4773,9.1815
"0003_14394","Addetto Mensa","Cucina","Orientamento alla qualità;Team Working",NA,NA,"B","REGGIO NELL'EMILIA",44.6982,10.6313
"0055_19328","Addetto Mensa","Cucina","Orientamento alla qualità;Team Working",NA,NA,NA,"CORNAREDO",45.497,9.02614
"0055_20083","Addetto Mensa","Cucina","Orientamento alla qualità;Team Working",NA,NA,"B","ALBUZZANO",45.1877,9.27275
"0055_20377","Addetto Mensa","Cucina","Team Working;Orientamento alla qualità",NA,NA,NA,"MILANO",45.4773,9.1815
"0044_23478","Addetto Mensa","Cucina","Orientamento alla qualità;Team Working",NA,NA,"B","MILANO",45.4773,9.1815
"3102_28897","Addetto Mensa","Cucina","Team Working;Orientamento alla qualità",NA,NA,NA,"REGGIO NELL'EMILIA",44.6982,10.6313
"3102_32062","Addetto Mensa","Cucina","Team Working;Orientamento alla qualità",NA,NA,"B","PORDENONE",45.9639,12.6575
"3102_32082","Addetto Mensa","Piani;Cucina","Team Working;Adattabilità al cambiamento;Orientamento alla qualità",NA,NA,"B","MILANO",45.4773,9.1815
"3124_38374","Addetto Mensa","Cucina","Team Working;Orientamento alla qualità",NA,NA,NA,"MILANO",45.4773,9.1815
"3124_38465","Addetto Mensa","Cucina","Team Working;Orientamento alla qualità",NA,NA,NA,"MILANO",45.4773,9.1815
"3124_38538","Addetto Mensa","Progettazione / Disegno tecnico;Cucina;Sala","Team Working;Orientamento alla qualità;Iniziativa","Qualifica / Attestato",NA,NA,"CASTENASO",44.5089,11.4698
"3124_38545","Addetto Mensa","Cucina","Team Working;Orientamento alla qualità",NA,NA,NA,"MILANO",45.4773,9.1815
"3124_38810","Addetto Mensa","Cucina","Team Working;Orientamento alla qualità",NA,NA,"B","CASTENASO",44.5089,11.4698
"3124_38962","Addetto Mensa","Cucina","Orientamento alla qualità;Team Working",NA,NA,NA,"MILANO",45.4773,9.1815
"3124_39271","Addetto Mensa","Cucina;Progettazione / Disegno tecnico;Sala","Orientamento alla qualità;Decision Making;Orientamento al cliente;Team Working",NA,"Altro;Inglese",NA,"MILANO",45.4773,9.1815
"3124_39320","Addetto Mensa","Cucina","Team Working;Orientamento alla qualità",NA,NA,NA,"CASTENASO",44.5089,11.4698
"3124_39822","Addetto Mensa","Cucina","Team Working;Orientamento alla qualità",NA,NA,NA,"MILANO",45.4773,9.1815
"3124_39999","Addetto Mensa","Cucina","Orientamento alla qualità;Team Working",NA,NA,NA,"ANZOLA DELL'EMILIA",44.5464,11.1946
"3124_40668","Addetto Mensa","Piani;Igiene / Pulizia;Cucina","Team Working;Adattabilità al cambiamento;Orientamento alla qualità",NA,NA,NA,"MILANO",45.4773,9.1815
"3124_41030","Addetto Mensa","Cucina;Piani;Igiene / Pulizia","Team Working;Adattabilità al cambiamento;Orientamento alla qualità",NA,NA,NA,"MILANO",45.4773,9.1815
"3124_41306","Addetto Mensa","Cucina","Orientamento alla qualità;Team Working",NA,NA,NA,"MILANO",45.4773,9.1815
"3124_41368","Addetto Mensa","Progettazione / Disegno tecnico;Cucina","Team Working;Decision Making;Orientamento alla qualità",NA,"Altro;Inglese",NA,"MILANO",45.4773,9.1815
"3124_41870","Addetto Mensa","Cucina","Orientamento alla qualità;Team Working",NA,NA,NA,"MILANO",45.4773,9.1815
"3124_42263","Addetto Mensa","Igiene / Pulizia;Cucina;Piani","Adattabilità al cambiamento;Orientamento alla qualità;Team Working",NA,NA,NA,"MILANO",45.4773,9.1815
"3124_43434","Addetto Mensa","Cucina","Orientamento alla qualità;Team Working",NA,NA,NA,"MILANO",45.4773,9.1815
"0100_49212","Addetto Mensa","Cucina","Team Working;Orientamento alla qualità",NA,NA,"B","MANERBIO",45.3558,10.1352
"1559_289","assemblatore elettronico/assemblatrice elettronica","R&D;Produzione;Saldatura;Elettrica / Elettrotecnica","Team Working;Orientamento alla qualità",NA,"Inglese","B","MESTRINO",45.4409,11.7605
"1526_485","assemblatore elettronico/assemblatrice elettronica","Elettrica / Elettrotecnica;Saldatura","Orientamento alla qualità;Team Working",NA,"Inglese",NA,"REGGIO NELL'EMILIA",44.6982,10.6313
"1526_666","assemblatore elettronico/assemblatrice elettronica","R&D;Elettrica / Elettrotecnica;Produzione;Saldatura","Orientamento alla qualità;Team Working",NA,"Inglese",NA,"REGGIO NELL'EMILIA",44.6982,10.6313
"1526_681","assemblatore elettronico/assemblatrice elettronica","R&D;Grande distribuzione;Segreteria;Magazzino;Elettrica / Elettrotecnica;Produzione;Saldatura","Orientamento alla qualità;Problem solving e analisi;Team Working",NA,"Inglese",NA,"REGGIO NELL'EMILIA",44.6982,10.6313
"1526_684","assemblatore elettronico/assemblatrice elettronica","Saldatura;R&D;Elettrica / Elettrotecnica","Team Working;Orientamento alla qualità",NA,"Inglese",NA,"REGGIO NELL'EMILIA",44.6982,10.6313
"1526_781","assemblatore elettronico/assemblatrice elettronica","Produzione;Elettrica / Elettrotecnica;R&D;Saldatura","Orientamento alla qualità;Team Working",NA,"Inglese",NA,"REGGIO NELL'EMILIA",44.6982,10.6313
"1526_865","assemblatore elettronico/assemblatrice elettronica","Elettrica / Elettrotecnica;Saldatura;R&D","Team Working;Orientamento alla qualità",NA,NA,NA,"REGGIO NELL'EMILIA",44.6982,10.6313
"1526_965","assemblatore elettronico/assemblatrice elettronica","Elettrica / Elettrotecnica;R&D;Saldatura","Orientamento alla qualità;Team Working",NA,"Inglese","B","REGGIO NELL'EMILIA",44.6982,10.6313
"1526_1094","assemblatore elettronico/assemblatrice elettronica","Elettrica / Elettrotecnica;Saldatura",NA,NA,NA,NA,"REGGIO NELL'EMILIA",44.6982,10.6313
"1526_1132","assemblatore elettronico/assemblatrice elettronica","Saldatura;R&D;Gomma Plastica;Elettrica / Elettrotecnica;Produzione","Orientamento alla qualità;Team Working",NA,"Inglese",NA,"REGGIO NELL'EMILIA",44.6982,10.6313
"1526_1139","assemblatore elettronico/assemblatrice elettronica","R&D;Elettrica / Elettrotecnica;Produzione;Saldatura","Orientamento alla qualità;Team Working",NA,"Inglese",NA,"REGGIO NELL'EMILIA",44.6982,10.6313
"1526_1200","assemblatore elettronico/assemblatrice elettronica","R&D;Produzione;Elettrica / Elettrotecnica;Saldatura","Orientamento alla qualità;Team Working",NA,"Inglese",NA,"REGGIO NELL'EMILIA",44.6982,10.6313
"1526_1365","assemblatore elettronico/assemblatrice elettronica","Elettrica / Elettrotecnica",NA,NA,NA,NA,"REGGIO NELL'EMILIA",44.6982,10.6313
"1526_1396","assemblatore elettronico/assemblatrice elettronica","Saldatura",NA,NA,NA,NA,"REGGIO NELL'EMILIA",44.6982,10.6313
"1526_1445","assemblatore elettronico/assemblatrice elettronica","R&D;Produzione;Elettrica / Elettrotecnica;Saldatura;Metalmeccanico","Team Working;Orientamento alla qualità",NA,"Inglese",NA,"REGGIO NELL'EMILIA",44.6982,10.6313
"1526_1474","assemblatore elettronico/assemblatrice elettronica","R&D;Elettrica / Elettrotecnica;Saldatura;Metalmeccanico;Produzione","Team Working;Orientamento alla qualità",NA,"Inglese",NA,"REGGIO NELL'EMILIA",44.6982,10.6313
"1526_1494","assemblatore elettronico/assemblatrice elettronica","Elettrica / Elettrotecnica;Saldatura","Team Working;Orientamento alla qualità",NA,NA,NA,"REGGIO NELL'EMILIA",44.6982,10.6313
"1526_1579","assemblatore elettronico/assemblatrice elettronica","Elettrica / Elettrotecnica;Saldatura","Team Working",NA,NA,NA,"REGGIO NELL'EMILIA",44.6982,10.6313
"1526_1823","assemblatore elettronico/assemblatrice elettronica","Elettrica / Elettrotecnica;Saldatura","Team Working",NA,NA,NA,"REGGIO NELL'EMILIA",44.6982,10.6313
"1526_1836","assemblatore elettronico/assemblatrice elettronica","Elettrica / Elettrotecnica;Saldatura","Team Working;Orientamento alla qualità",NA,NA,NA,"REGGIO NELL'EMILIA",44.6982,10.6313
"1526_1858","assemblatore elettronico/assemblatrice elettronica","R&D;Metalmeccanico","Team Working;Orientamento alla qualità",NA,"Inglese",NA,"REGGIO NELL'EMILIA",44.6982,10.6313
"1526_1906","assemblatore elettronico/assemblatrice elettronica","Elettrica / Elettrotecnica;Saldatura","Orientamento alla qualità;Team Working",NA,NA,NA,"REGGIO NELL'EMILIA",44.6982,10.6313
"1526_1923","assemblatore elettronico/assemblatrice elettronica","Elettrica / Elettrotecnica;Saldatura;R&D","Team Working;Orientamento alla qualità",NA,NA,NA,"REGGIO NELL'EMILIA",44.6982,10.6313
"1526_1927","assemblatore elettronico/assemblatrice elettronica","Saldatura;R&D","Orientamento alla qualità;Team Working",NA,NA,NA,"REGGIO NELL'EMILIA",44.6982,10.6313
"1526_1932","assemblatore elettronico/assemblatrice elettronica","Saldatura","Team Working;Orientamento alla qualità",NA,NA,NA,"REGGIO NELL'EMILIA",44.6982,10.6313
"1526_1975","assemblatore elettronico/assemblatrice elettronica","Saldatura;Elettrica / Elettrotecnica","Team Working;Orientamento alla qualità",NA,NA,NA,"REGGIO NELL'EMILIA",44.6982,10.6313
"1526_1977","assemblatore elettronico/assemblatrice elettronica","Magazzino;Saldatura;Trasporti;Elettrica / Elettrotecnica","Orientamento al risultato;Orientamento alla qualità;Pianificazione e organizzazione;Problem solving e analisi;Team Working;Comunicazione",NA,NA,NA,"REGGIO NELL'EMILIA",44.6982,10.6313
"1526_1985","assemblatore elettronico/assemblatrice elettronica","R&D;Elettrica / Elettrotecnica;Saldatura","Orientamento alla qualità;Team Working",NA,NA,NA,"REGGIO NELL'EMILIA",44.6982,10.6313
"0301_10786","assemblatore elettronico/assemblatrice elettronica","Produzione;Saldatura;Elettrica / Elettrotecnica;R&D","Orientamento alla qualità;Team Working","Diploma / Accademia",NA,NA,"BAGNO A RIPOLI",43.7511,11.3225
"0121_14359","assemblatore elettronico/assemblatrice elettronica","Elettrica / Elettrotecnica;Saldatura;R&D;Produzione","Team Working;Orientamento alla qualità",NA,"Inglese",NA,"MORNAGO",45.7458,8.75123
"0280_15206","assemblatore elettronico/assemblatrice elettronica","R&D;Elettrica / Elettrotecnica;Saldatura;Produzione","Team Working;Orientamento alla qualità",NA,"Italiano",NA,"SERIATE",45.6834,9.72286
"0280_15226","assemblatore elettronico/assemblatrice elettronica","R&D;Elettrica / Elettrotecnica;Saldatura;Produzione","Team Working;Orientamento alla qualità",NA,"Italiano",NA,"SERIATE",45.6834,9.72286
"0298_18982","assemblatore elettronico/assemblatrice elettronica","Produzione;Elettrica / Elettrotecnica;R&D;Saldatura","Orientamento alla qualità;Team Working",NA,NA,NA,"CHIETI",42.3609,14.138
"0055_19216","assemblatore elettronico/assemblatrice elettronica","Produzione;Elettrica / Elettrotecnica;Gomma Plastica;Saldatura;Meccanica;R&D","Problem solving e analisi;Orientamento alla qualità;Team Working",NA,"Inglese",NA,"DORNO",45.156,8.95275
"0178_20278","assemblatore elettronico/assemblatrice elettronica","R&D;Elettrica / Elettrotecnica;Produzione;Saldatura","Problem solving e analisi;Team Working;Orientamento alla qualità",NA,"Inglese",NA,"BORGARO TORINESE",45.1483,7.65672
"0178_20298","assemblatore elettronico/assemblatrice elettronica","Elettrica / Elettrotecnica;R&D;Produzione;Saldatura","Problem solving e analisi;Team Working;Orientamento alla qualità",NA,"Inglese",NA,"BORGARO TORINESE",45.1483,7.65672
"1816_116","assistente amministrativo","Fogli di calcolo / elettronici;Progettazione / Disegno tecnico","Team Working",NA,NA,NA,"TRIESTE",45.6486,13.78
"1816_184","assistente amministrativo","Fogli di calcolo / elettronici",NA,NA,NA,NA,"TRIESTE",45.6486,13.78
"1816_201","assistente amministrativo","Database;Fogli di calcolo / elettronici","Team Working",NA,NA,NA,"TRIESTE",45.6486,13.78
"1816_209","assistente amministrativo","Fogli di calcolo / elettronici","Team Working;Problem solving e analisi",NA,NA,NA,"TRIESTE",45.6486,13.78
"1816_211","assistente amministrativo","Fogli di calcolo / elettronici",NA,NA,NA,NA,"TRIESTE",45.6486,13.78
"1816_250","assistente amministrativo","Word Processor - Elaborazione testi;Fogli di calcolo / elettronici",NA,NA,"Inglese",NA,"TRIESTE",45.6486,13.78
"1816_333","assistente amministrativo","Altro;Progettazione / Disegno tecnico",NA,NA,"Inglese",NA,"TRIESTE",45.6486,13.78
"1816_344","assistente amministrativo","Altro;Progettazione / Disegno tecnico",NA,NA,NA,NA,"TRIESTE",45.6486,13.78
"1675_400","assistente amministrativo","Produzione;Posta elettronica/Messaggistica;Vendita;Acquisti;Fogli di calcolo / elettronici","Problem solving e analisi;Orientamento alla qualità;Orientamento al risultato;Decision Making","Laurea Triennale","Inglese","B","UBOLDO",45.6153,9.00394
"1630_595","assistente amministrativo","Segreteria;Contabilità;Word Processor - Elaborazione testi;Fogli di calcolo / elettronici;Grafici e Presentazioni;Vendita","Team Working;Orientamento alla qualità;Decision Making;Pianificazione e organizzazione;Problem solving e analisi",NA,"Inglese","B","GORLE",45.7002,9.71275
"1518_806","assistente amministrativo","Risorse Umane;Segreteria","Problem solving e analisi;Orientamento alla qualità;Adattabilità al cambiamento;Pianificazione e organizzazione;Orientamento al risultato;Decision Making",NA,"Inglese",NA,"GENOVA",44.4063,8.93386
"1519_808","assistente amministrativo","Browser per Internet;Word Processor - Elaborazione testi;Farmaco-Scientifico;Fogli di calcolo / elettronici;Posta elettronica/Messaggistica","Decision Making;Pianificazione e organizzazione;Orientamento alla qualità;Problem solving e analisi",NA,"Inglese",NA,"FIRENZE",43.7667,11.25
"1519_859","assistente amministrativo","Altro",NA,NA,"Inglese",NA,"FIRENZE",43.7667,11.25
"1519_862","assistente amministrativo","Altro",NA,NA,"Inglese",NA,"FIRENZE",43.7667,11.25
"1280_922","assistente amministrativo","Fogli di calcolo / elettronici;Sistemi Operativi",NA,NA,"Inglese",NA,"SAN GIULIANO MILANESE",45.3957,9.28757
"1376_1089","assistente amministrativo","Magazzino","Pianificazione e organizzazione;Problem solving e analisi;Orientamento alla qualità;Team Working",NA,NA,"B","PIANEZZA",45.1059,7.54342
"1698_1381","assistente amministrativo","Segreteria","Orientamento digitale",NA,NA,"B","MILANO",45.4773,9.1815
"0997_1563","assistente amministrativo","Progettazione / Disegno tecnico",NA,NA,NA,NA,"SAN DONATO MILANESE",45.4199,9.26628
"0294_5712","assistente amministrativo","Progettazione / Disegno tecnico;Fogli di calcolo / elettronici","Comunicazione",NA,"Inglese",NA,"MILANO",45.4773,9.1815
"0198_7342","assistente amministrativo","Contabilità;Amministrazione del personale",NA,NA,NA,"B","SUZZARA",44.9919,10.7431
"0357_7715","assistente amministrativo","Segreteria;Legale",NA,NA,NA,NA,"BORGO VELINO",42.406,13.0593
"0940_8651","assistente amministrativo","Contabilità","Orientamento alla qualità;Pianificazione e organizzazione;Team Working;Problem solving e analisi",NA,NA,"B","BRA",44.703,7.85563
"0092_9670","assistente amministrativo","Segreteria",NA,NA,NA,NA,"VIMERCATE",45.6119,9.36705
"0050_9824","assistente amministrativo","Segreteria",NA,NA,NA,NA,"TRIVIGNANO UDINESE",45.9467,13.3428
"0585_9887","assistente amministrativo","Contabilità","Pianificazione e organizzazione;Orientamento alla qualità",NA,NA,"B","TRIBIANO",45.4134,9.37895
"0301_10648","assistente amministrativo","Segreteria","Orientamento alla qualità",NA,NA,NA,"FIRENZE",43.7667,11.25
"0397_10664","assistente amministrativo","Fogli di calcolo / elettronici;Progettazione / Disegno tecnico","Orientamento alla qualità;Comunicazione;Team Working;Orientamento al risultato;Pianificazione e organizzazione",NA,NA,"B","AGRATE BRIANZA",45.5778,9.35145
"0517_11261","assistente amministrativo","Progettazione / Disegno tecnico","Orientamento alla qualità",NA,NA,"B","CAMPOBASSO",41.56,14.6675
"0462_11463","assistente amministrativo","Banca",NA,NA,NA,NA,"VICENZA",45.5573,11.5409
"0397_12202","assistente amministrativo","Information Technology Altro","Team Working",NA,NA,NA,"AGRATE BRIANZA",45.5778,9.35145
"0391_12453","assistente amministrativo","Progettazione / Disegno tecnico;Fogli di calcolo / elettronici","Orientamento al risultato;Orientamento alla qualità;Pianificazione e organizzazione;Comunicazione;Team Working",NA,"Inglese",NA,"ATESSA",42.0693,14.4511
"0606_12580","assistente amministrativo","Vendita;Magazzino;Contabilità;Segreteria","Pianificazione e organizzazione;Orientamento alla qualità",NA,NA,"B","ZENSON DI PIAVE",45.6783,12.4883
"0391_12631","assistente amministrativo","Word Processor - Elaborazione testi;Grafici e Presentazioni;Fogli di calcolo / elettronici;Segreteria;Vendita","Decision Making;Orientamento alla qualità;Problem solving e analisi;Team Working",NA,"Inglese","B","ATESSA",42.0693,14.4511
"0606_12919","assistente amministrativo","Vendita;Animazione e sport;Grafici e Presentazioni;Banca;Word Processor - Elaborazione testi;Fogli di calcolo / elettronici;Segreteria","Decision Making;Team Working;Problem solving e analisi;Orientamento alla qualità",NA,"Inglese","B","CARBONERA",45.6806,12.2883
"0102_13001","assistente amministrativo","Contabilità","Team Working;Pianificazione e organizzazione",NA,NA,NA,"TREZZO SULL'ADDA",45.603,9.51995
"0400_13309","assistente amministrativo","Contabilità","Orientamento alla qualità",NA,NA,NA,"MONTECHIARUGOLO",44.6933,10.4222
"0288_13610","assistente amministrativo","Vendita","Orientamento al risultato;Orientamento al cliente;Problem solving e analisi;Comunicazione;Iniziativa","Diploma / Accademia;Laurea Magistrale;Laurea Triennale",NA,"B","BUJA",46.224,12.9737
"0288_13682","assistente amministrativo","Progettazione / Disegno tecnico;Fogli di calcolo / elettronici","Comunicazione;Team Working;Orientamento alla qualità;Pianificazione e organizzazione;Orientamento al risultato",NA,"Inglese","B","TARCENTO",46.2122,13.2258
"0254_13893","assistente amministrativo","Ricevimento;Browser per Internet;Segreteria;Progettazione / Disegno tecnico;Fogli di calcolo / elettronici;Word Processor - Elaborazione testi","Decision Making;Orientamento alla qualità;Comunicazione;Orientamento al cliente",NA,"Inglese",NA,"TORINO",45.0705,7.68682
"0133_15492","assistente amministrativo","Contabilità",NA,NA,NA,NA,"SCHIO",45.7124,11.3574
"0015_15854","assistente amministrativo","Contabilità","Orientamento al risultato;Orientamento al cliente;Gestione dei cambiamenti;Decision Making",NA,"Inglese",NA,"CITTA' SANT'ANGELO",42.5192,14.0602
"0319_15969","assistente amministrativo","Contabilità","Orientamento al risultato;Orientamento al cliente;Pianificazione e organizzazione",NA,"Inglese","B","FLERO",45.4826,10.1735
"0280_15983","assistente amministrativo","Information Technology Altro;Contabilità","Pianificazione e organizzazione;Comunicazione",NA,NA,NA,"GRASSOBBIO",45.6569,9.72566
"0015_16047","assistente amministrativo","Progettazione / Disegno tecnico;Segreteria","Team Working;Pianificazione e organizzazione;Orientamento alla qualità;Problem solving e analisi;Comunicazione;Decision Making",NA,"Inglese","B","SAN GIOVANNI TEATINO",42.4091,14.201
"0015_16314","assistente amministrativo","Contabilità","Orientamento alla qualità;Team Working;Problem solving e analisi;Pianificazione e organizzazione",NA,"Inglese;Altro","B","SAN GIOVANNI TEATINO",42.4091,14.201
"0358_16742","assistente amministrativo","Progettazione / Disegno tecnico;Fogli di calcolo / elettronici;Segreteria;Ricevimento","Orientamento al cliente;Comunicazione;Team Working;Decision Making",NA,NA,"B","COMO",45.81,9.08744
"0452_17063","assistente amministrativo","Progettazione / Disegno tecnico;Fogli di calcolo / elettronici","Orientamento alla qualità;Comunicazione;Pianificazione e organizzazione;Team Working;Orientamento al risultato",NA,"Inglese;Altro","B","ROGENO",45.7824,9.27404
"0259_17431","assistente amministrativo","Segreteria;Grafici e Presentazioni;Fogli di calcolo / elettronici;Word Processor - Elaborazione testi;Vendita","Team Working;Orientamento alla qualità;Decision Making;Problem solving e analisi",NA,"Inglese",NA,"MODENA",44.6478,10.9254
"0259_17506","assistente amministrativo","Word Processor - Elaborazione testi;Grafici e Presentazioni;Segreteria;Vendita;Fogli di calcolo / elettronici","Orientamento alla qualità;Team Working;Problem solving e analisi;Decision Making",NA,"Inglese","B","MODENA",44.6478,10.9254
"0259_17746","assistente amministrativo","Segreteria;Vendita",NA,NA,NA,"B","MODENA",44.6478,10.9254
"0046_18439","assistente amministrativo","Progettazione / Disegno tecnico;Fogli di calcolo / elettronici",NA,NA,NA,NA,"SALERNO",40.678,14.766
"0042_19022","assistente amministrativo","Segreteria;Fogli di calcolo / elettronici;Grafici e Presentazioni;Progettazione / Disegno tecnico;Vendita;Word Processor - Elaborazione testi","Orientamento alla qualità;Problem solving e analisi;Decision Making;Pianificazione e organizzazione;Comunicazione;Team Working;Orientamento al risultato",NA,"Inglese",NA,"MANDELLO DEL LARIO",45.9192,9.31934
"0190_19044","assistente amministrativo","Ricevimento","Pianificazione e organizzazione",NA,NA,NA,"ALZANO LOMBARDO",45.7334,9.72865
"0548_19389","assistente amministrativo","Altro",NA,NA,NA,NA,"SANTHIA'",43.9099,8.0818
"0042_19510","assistente amministrativo","Vendita","Iniziativa;Orientamento al cliente;Comunicazione;Problem solving e analisi;Orientamento al risultato;Pianificazione e organizzazione",NA,NA,"B","LECCO",45.8532,9.39005
"0413_19547","assistente amministrativo","Fogli di calcolo / elettronici;Progettazione / Disegno tecnico;Contabilità","Pianificazione e organizzazione;Team Working;Comunicazione;Orientamento alla qualità;Problem solving e analisi;Orientamento al risultato",NA,"Inglese","B","POIANA MAGGIORE",45.2904,11.5025
"0298_19629","assistente amministrativo","Fogli di calcolo / elettronici;Contabilità;Progettazione / Disegno tecnico;SAP","Team Working;Pianificazione e organizzazione;Orientamento alla qualità",NA,"Inglese",NA,"MANOPPELLO",42.2576,14.06
"0042_19723","assistente amministrativo","Word Processor - Elaborazione testi;Segreteria;Grafici e Presentazioni;Vendita;Fogli di calcolo / elettronici",NA,NA,"Inglese","B","MANDELLO DEL LARIO",45.9192,9.31934
"0098_19762","assistente amministrativo","Banca;Controllo Di Gestione / Revisione / Bilancio;Contabilità",NA,"Diploma / Accademia",NA,NA,"FIDENZA",44.864,10.0667
"0178_20705","assistente amministrativo","Magazzino;Trasporti","Orientamento alla qualità;Orientamento al risultato;Pianificazione e organizzazione;Comunicazione;Problem solving e analisi",NA,NA,NA,"LEINI",45.1828,7.71422
"0499_20787","assistente amministrativo","Contabilità","Orientamento alla qualità","Diploma / Accademia",NA,NA,"LIVORNO",43.5426,10.316
"0076_21651","assistente amministrativo","Legale",NA,NA,NA,NA,"MARCIANISE",41.0322,14.3009
"0076_21654","assistente amministrativo","Information Technology Altro",NA,NA,NA,NA,"MARCIANISE",41.0322,14.3009
"0457_22484","assistente amministrativo","Segreteria;Fogli di calcolo / elettronici","Problem solving e analisi;Orientamento al cliente;Pianificazione e organizzazione",NA,NA,"B","CASALMORO",45.2596,10.4045
"0553_23016","assistente amministrativo","Fogli di calcolo / elettronici;Progettazione / Disegno tecnico;Word Processor - Elaborazione testi;Grafici e Presentazioni;Vendita;Segreteria","Problem solving e analisi;Orientamento al risultato;Comunicazione;Team Working;Orientamento alla qualità;Pianificazione e organizzazione",NA,"Inglese",NA,"AVIGLIANA",45.0771,7.39862
"0264_23631","assistente amministrativo","Progettazione / Disegno tecnico;Word Processor - Elaborazione testi;Fogli di calcolo / elettronici","Orientamento al risultato;Comunicazione;Team Working;Pianificazione e organizzazione;Orientamento alla qualità",NA,"Inglese","B","ISPRA",45.8148,8.61294
"0264_23672","assistente amministrativo","Contabilità","Orientamento alla qualità;Problem solving e analisi;Team Working;Pianificazione e organizzazione",NA,NA,"B","LUINO",46.0019,8.74512
"0300_24680","assistente amministrativo","Fogli di calcolo / elettronici",NA,NA,NA,"B","PONSACCO",43.6238,10.6291
"0300_25284","assistente amministrativo","Contabilità","Problem solving e analisi;Pianificazione e organizzazione;Orientamento al risultato",NA,NA,NA,"PONTEDERA",43.6616,10.6317
"0123_25650","assistente amministrativo","Segreteria;Contabilità;SAP","Problem solving e analisi;Orientamento alla qualità;Team Working","Diploma / Accademia","Inglese","B","GRUGLIASCO",45.0681,7.57762
"0300_25909","assistente amministrativo","Aeroporti;Segreteria;Contact Center",NA,NA,"Inglese",NA,"PONTEDERA",43.6616,10.6317
"0300_26025","assistente amministrativo","Fogli di calcolo / elettronici;Contabilità;Progettazione / Disegno tecnico;Vendita","Pianificazione e organizzazione;Comunicazione",NA,NA,NA,"CASTELFRANCO DI SOTTO",43.7015,10.7455
"0016_26156","assistente amministrativo","Segreteria;Piani;Progettazione / Disegno tecnico;Animazione e sport","Comunicazione;Orientamento alla qualità;Orientamento al cliente;Team Working;Problem solving e analisi;Adattabilità al cambiamento",NA,"Altro;Spagnolo;Tedesco;Inglese",NA,"MEZZOLOMBARDO",46.209,11.0968
"0016_26214","assistente amministrativo","Groupeware;Posta elettronica/Messaggistica;Fogli di calcolo / elettronici;Vendita;Word Processor - Elaborazione testi","Orientamento alla qualità;Orientamento al risultato;Decision Making;Problem solving e analisi",NA,"Inglese",NA,"TRENTO",46.0679,11.1211
"0300_26905","assistente amministrativo","Segreteria;Aeroporti;Contact Center;Contabilità","Team Working;Orientamento alla qualità;Problem solving e analisi;Pianificazione e organizzazione",NA,"Inglese;Altro",NA,"PONTEDERA",43.6616,10.6317
"0016_27507","assistente amministrativo","Word Processor - Elaborazione testi",NA,NA,NA,NA,"TRENTO",46.0679,11.1211
"0565_27730","assistente amministrativo","Contabilità","Team Working;Pianificazione e organizzazione;Decision Making;Problem solving e analisi;Orientamento alla qualità;Comunicazione;Orientamento al cliente",NA,NA,NA,"COMO",45.81,9.08744
"0565_27906","assistente amministrativo","Contabilità",NA,NA,NA,"B","CANTU'",46.3958,11.1195
"0137_31856","assistente amministrativo","Word Processor - Elaborazione testi;Grafici e Presentazioni;Assistenza tecnica;Elettrica / Elettrotecnica;Segreteria;Fogli di calcolo / elettronici;Vendita","Gestione dei cambiamenti;Comunicazione;Team Working;Adattabilità al cambiamento;Orientamento al cliente;Orientamento al risultato;Decision Making;Problem solving e analisi;Spirito Imprenditoriale;Iniziativa;Orientamento alla qualità",NA,"Inglese;Italiano","B","TRENTO",46.0679,11.1211
"0544_42126","assistente amministrativo","Segreteria;Risorse Umane","Orientamento al risultato;Orientamento alla qualità;Adattabilità al cambiamento;Decision Making;Pianificazione e organizzazione;Problem solving e analisi",NA,"Inglese","B","COLLEGNO",45.0775,7.57242
"0188_15359","assistente di cucina","Cucina","Team Working;Comunicazione;Iniziativa",NA,"Italiano","B","CARMAGNOLA",44.847,7.71803
"0298_18806","assistente di cucina","Cucina;Progettazione / Disegno tecnico;Sala","Orientamento al cliente;Decision Making;Orientamento alla qualità",NA,NA,"B","CHIETI",42.3609,14.138
"0193_23016","assistente di cucina","Cucina","Team Working;Iniziativa",NA,"Inglese","B","MONDOVI'",46.026,9.2139
"3102_30172","assistente di cucina","Cucina;Sala","Orientamento alla qualità;Iniziativa;Team Working",NA,"Inglese","B","REGGIO NELL'EMILIA",44.6982,10.6313
"3102_31032","assistente di cucina","Cucina","Team Working;Iniziativa;Orientamento alla qualità",NA,"Inglese","B","REGGIO NELL'EMILIA",44.6982,10.6313
"3124_35904","assistente di cucina","Cucina;Sala","Iniziativa;Team Working",NA,"Inglese",NA,"REGGIO NELL'EMILIA",44.6982,10.6313
"3124_38311","assistente di cucina","Sala;Progettazione / Disegno tecnico;Cucina","Iniziativa;Decision Making;Team Working;Orientamento alla qualità",NA,"Inglese;Altro",NA,"MILANO",45.4773,9.1815
"3124_38382","assistente di cucina","Sala;Cucina","Iniziativa;Team Working",NA,"Inglese",NA,"MILANO",45.4773,9.1815
"3124_38463","assistente di cucina","Progettazione / Disegno tecnico;Cucina;Grande distribuzione;Sala","Orientamento al cliente;Iniziativa;Team Working;Decision Making;Orientamento alla qualità;Problem solving e analisi",NA,"Altro;Inglese",NA,"MILANO",45.4773,9.1815
"3124_39546","assistente di cucina","Cucina","Team Working;Iniziativa",NA,"Inglese",NA,"MILANO",45.4773,9.1815
"3124_39829","assistente di cucina","Cucina","Team Working;Iniziativa",NA,NA,NA,"MILANO",45.4773,9.1815
"3124_41891","assistente di cucina","Cucina","Team Working;Iniziativa",NA,"Inglese",NA,"MILANO",45.4773,9.1815
"0357_7506","Autista","Trasporti","Decision Making;Problem solving e analisi;Orientamento alla qualità",NA,NA,"D;CQC Persone;B","CANTALICE",42.4657,12.9048
"0970_9546","Autista","Trasporti","Decision Making;Orientamento alla qualità",NA,NA,"CE;CQC Merci","PINETO",42.6097,14.066
"0585_10174","Autista","Trasporti","Orientamento alla qualità;Decision Making",NA,NA,"C","ZELO BUON PERSICO",45.4125,9.43265
"0505_10404","Autista","Trasporti","Decision Making;Orientamento alla qualità",NA,NA,"C","BERGAMO",45.698,9.66895
"0301_10634","Autista","Trasporti","Decision Making;Orientamento alla qualità",NA,NA,NA,"SESTO FIORENTINO",43.8345,11.1952
"0517_11154","Autista","Trasporti","Orientamento alla qualità;Decision Making",NA,NA,"D;CQC Persone","CAMPOBASSO",41.56,14.6675
"0102_12625","Autista","Trasporti","Decision Making;Orientamento alla qualità;Comunicazione",NA,"Inglese","B","CAVENAGO DI BRIANZA",45.5841,9.41445
"0132_14730","Autista","Altro","Orientamento alla qualità",NA,"Italiano","B","CASTELLANA GROTTE",40.8864,17.1655
"0284_15112","Autista","Trasporti;Magazzino","Decision Making;Orientamento alla qualità",NA,NA,"CQC Merci;B;C","MONTEGROTTO TERME",45.3315,11.7912
"0253_15600","Autista","Trasporti","Pianificazione e organizzazione",NA,NA,"C;CQC Merci","PADERNO DUGNANO",45.569,9.16483
"0319_15746","Autista","Trasporti","Decision Making;Orientamento alla qualità",NA,NA,"B","MILANO",45.4773,9.1815
"0080_15892","Autista","Trasporti","Adattabilità al cambiamento;Decision Making;Orientamento alla qualità",NA,NA,"D;CQC Persone","SAVONA",44.3091,8.47715
"0015_16409","Autista","Trasporti","Decision Making;Orientamento alla qualità",NA,NA,"CE;CQC Merci","PESCARA",42.4602,14.2102
"0126_16430","Autista","Trasporti","Decision Making;Orientamento alla qualità",NA,NA,"B","BORGOMANERO",45.7024,8.45813
"0452_16453","Autista","Trasporti","Decision Making;Orientamento alla qualità",NA,NA,NA,"SIRONE",45.7727,9.32214
"0015_16697","Autista","Segreteria;Progettazione / Disegno tecnico;Trasporti","Decision Making;Pianificazione e organizzazione;Orientamento alla qualità",NA,NA,"CQC Merci;C","MONTESILVANO",42.5039,14.138
"0046_18175","Autista","Trasporti;Assistenza tecnica","Decision Making;Problem solving e analisi;Orientamento alla qualità;Iniziativa",NA,"Inglese",NA,"VENARIA REALE",45.1239,7.63542
"0042_18972","Autista","Magazzino","Decision Making;Orientamento alla qualità",NA,NA,"B","OLGINATE",45.7927,9.41555
"0055_19333","Autista","Trasporti","Decision Making;Orientamento alla qualità",NA,NA,"C;CQC Merci;B","PAVIA",45.1845,9.16145
"0166_19524","Autista","Trasporti","Decision Making;Orientamento alla qualità",NA,NA,"CQC Merci;C","SESTO SAN GIOVANNI",45.5345,9.23401
"0376_19700","Autista","Trasporti;Vendita","Orientamento alla qualità;Decision Making;Comunicazione;Pianificazione e organizzazione;Orientamento al risultato",NA,NA,"B","SAN PAOLO D'ARGON",45.6884,9.80226
"0485_20412","Autista","Trasporti","Decision Making;Orientamento alla qualità",NA,NA,"CQC Persone;Altro;D","ASCOLI PICENO",42.8548,13.5749
"0485_20873","Autista","Trasporti","Decision Making;Orientamento alla qualità",NA,NA,"C;B","FORCE",42.9609,13.4877
"0477_21054","Autista","Altro",NA,NA,NA,"CQC Persone;D","BRINDISI",40.6277,17.9368
"0127_22704","Autista","Trasporti","Decision Making;Orientamento alla qualità",NA,NA,"C","BRESCELLO",44.8966,10.5123
"0300_23856","Autista","Trasporti","Orientamento alla qualità;Decision Making",NA,NA,"B","CASCIANA TERME LARI",43.551,10.5891
"3102_28979","Autista","Fogli di calcolo / elettronici;Trasporti","Decision Making;Orientamento alla qualità;Pianificazione e organizzazione",NA,"Inglese","B","CERNUSCO SUL NAVIGLIO",45.5272,9.3334
"1280_984","Back Office Commerciale","Posta elettronica/Messaggistica;Sistemi di Gestione ;Segreteria;Sistemi Operativi;Progettazione / Disegno tecnico;Animazione e sport;Database","Comunicazione;Orientamento al cliente;Orientamento alla qualità;Problem solving e analisi;Pianificazione e organizzazione;Team Working;Orientamento al risultato;Decision Making",NA,"Inglese",NA,"SAN GIULIANO MILANESE",45.3957,9.28757
"0106_8606","Back Office Commerciale","Vendita","Problem solving e analisi;Decision Making;Adattabilità al cambiamento;Comunicazione;Pianificazione e organizzazione",NA,"Inglese",NA,"MILANO",45.4773,9.1815
"0050_10029","Back Office Commerciale","Marketing/Comunicazione",NA,NA,NA,NA,"MARTIGNACCO",46.0964,13.1378
"0050_10761","Back Office Commerciale","Vendita",NA,NA,NA,NA,"PAGNACCO",46.1217,13.1903
"0606_12220","Back Office Commerciale","Magazzino","Team Working;Pianificazione e organizzazione;Problem solving e analisi",NA,"Inglese",NA,"TREVISO",45.6667,12.245
"0606_12330","Back Office Commerciale","Segreteria;Vendita;Magazzino","Comunicazione",NA,"Inglese;Altro",NA,"BREDA DI PIAVE",45.7225,12.3308
"0606_12583","Back Office Commerciale","Trasporti;Contact Center;Segreteria;Vendita","Orientamento al cliente;Problem solving e analisi;Comunicazione",NA,"Inglese","B","ZERO BRANCO",45.6019,12.1633
"0400_13324","Back Office Commerciale","Altro","Orientamento al cliente",NA,NA,NA,"PARMA",44.8027,10.329
"0302_14220","Back Office Commerciale","Fogli di calcolo / elettronici","Decision Making;Problem solving e analisi;Orientamento alla qualità;Comunicazione",NA,"Inglese",NA,"CASTEL MADAMA",41.9735,12.8685
"0151_14325","Back Office Commerciale","Vendita;Fogli di calcolo / elettronici;Segreteria;Grafici e Presentazioni;Word Processor - Elaborazione testi","Team Working;Decision Making;Problem solving e analisi;Orientamento alla qualità",NA,"Italiano","B","CORNAREDO",45.497,9.02614
"0136_15346","Back Office Commerciale","Vendita;Posta elettronica/Messaggistica;Fogli di calcolo / elettronici;Acquisti","Orientamento alla qualità;Orientamento al risultato;Decision Making;Problem solving e analisi",NA,"Inglese",NA,"MILANO",45.4773,9.1815
"0452_15884","Back Office Commerciale","Progettazione / Disegno tecnico;Segreteria;Contact Center;Vendita","Orientamento al cliente;Orientamento al risultato;Problem solving e analisi;Comunicazione;Orientamento alla qualità;Pianificazione e organizzazione;Iniziativa",NA,"Inglese;Altro",NA,"OGGIONO",45.7919,9.34674
"0190_16489","Back Office Commerciale","Segreteria",NA,NA,"Inglese;Italiano",NA,"ALZANO LOMBARDO",45.7334,9.72865
"0548_19572","Back Office Commerciale","Altro","Comunicazione;Team Working;Iniziativa",NA,"Inglese;Altro;Tedesco",NA,"VERCELLI",45.3231,8.41533
"0298_19591","Back Office Commerciale","Information Technology Altro","Comunicazione",NA,NA,NA,"RIPA TEATINA",42.3586,14.2341
"0178_19786","Back Office Commerciale","Sistemi Operativi","Orientamento al cliente",NA,NA,NA,"COLLEGNO",45.0775,7.57242
"0457_20351","Back Office Commerciale","Vendita","Comunicazione;Orientamento alla qualità;Orientamento al cliente;Orientamento al risultato",NA,"Inglese","B","CASALROMANO",45.2007,10.3694
"0178_20380","Back Office Commerciale","Segreteria;Vendita;Fogli di calcolo / elettronici;Banca;Animazione e sport;Word Processor - Elaborazione testi;Grafici e Presentazioni","Team Working;Orientamento alla qualità;Decision Making;Problem solving e analisi",NA,NA,NA,"SAN MAURIZIO CANAVESE",45.217,7.63052
"0178_20732","Back Office Commerciale","Segreteria;Vendita;Grafici e Presentazioni;Fogli di calcolo / elettronici;Word Processor - Elaborazione testi","Orientamento al risultato;Orientamento alla qualità;Problem solving e analisi;Decision Making;Team Working",NA,"Inglese","B","SAN MAURIZIO CANAVESE",45.217,7.63052
"0065_22434","Back Office Commerciale","Fogli di calcolo / elettronici;Magazzino;Vendita","Team Working;Decision Making;Comunicazione;Orientamento alla qualità;Problem solving e analisi;Pianificazione e organizzazione;Orientamento al risultato;Iniziativa",NA,"Inglese","B","LEGNARO",45.3398,11.9657
"0457_22660","Back Office Commerciale","Posta elettronica/Messaggistica;Segreteria;Vendita;Fogli di calcolo / elettronici","Problem solving e analisi;Orientamento al risultato;Iniziativa;Pianificazione e organizzazione;Orientamento al cliente",NA,"Inglese","B","MARIANA MANTOVANA",45.1929,10.4869
"0044_24756","Back Office Commerciale","Vendita","Iniziativa;Orientamento alla qualità",NA,NA,"B","PIACENZA",45.0468,9.69937
"0154_37295","Back Office Commerciale","Vendita;Segreteria;Magazzino;Contact Center","Orientamento alla qualità;Team Working;Problem solving e analisi",NA,"Inglese","B","ROBASSOMERO",45.2001,7.56892
"1739_101","Banconista","Grande distribuzione",NA,NA,NA,"B","VERCELLI",45.3231,8.41533
"1612_230","Banconista","Grande distribuzione",NA,NA,NA,NA,"BRESCIA",45.5248,10.2273
"1739_402","Banconista","Vendita",NA,NA,NA,"B","PIOLTELLO",45.505,9.33151
"1739_413","Banconista","Vendita",NA,NA,NA,"B","PIOLTELLO",45.505,9.33151
"1739_493","Banconista","Grande distribuzione","Orientamento alla qualità;Orientamento al cliente;Problem solving e analisi;Comunicazione",NA,NA,NA,"VERCELLI",45.3231,8.41533
"1739_631","Banconista","Grande distribuzione",NA,NA,NA,NA,"VERCELLI",45.3231,8.41533
"1739_704","Banconista","Grande distribuzione",NA,NA,NA,NA,"VERCELLI",45.3231,8.41533
"1739_707","Banconista","Grande distribuzione",NA,NA,NA,NA,"VERCELLI",45.3231,8.41533
"1739_767","Banconista","Grande distribuzione;Cucina",NA,NA,NA,NA,"PIOLTELLO",45.505,9.33151
"1739_794","Banconista","Grande distribuzione",NA,NA,NA,NA,"VERCELLI",45.3231,8.41533
"1739_885","Banconista","Grande distribuzione",NA,NA,NA,NA,"VERCELLI",45.3231,8.41533
"1739_1029","Banconista","Grande distribuzione",NA,NA,NA,NA,"VERCELLI",45.3231,8.41533
"1739_1064","Banconista","Grande distribuzione",NA,NA,NA,NA,"VERCELLI",45.3231,8.41533
"1739_1181","Banconista","Grande distribuzione","Adattabilità al cambiamento",NA,NA,"B","VERCELLI",45.3231,8.41533
"1739_1216","Banconista","Grande distribuzione",NA,NA,NA,NA,"VERCELLI",45.3231,8.41533
"1739_1217","Banconista","Grande distribuzione",NA,NA,NA,NA,"VERCELLI",45.3231,8.41533
"1739_1372","Banconista","Grande distribuzione",NA,NA,NA,NA,"VERCELLI",45.3231,8.41533
"1739_1517","Banconista","Grande distribuzione;Sala","Comunicazione",NA,"Inglese;Altro","B","VERCELLI",45.3231,8.41533
"1739_1519","Banconista","Grande distribuzione;Sala","Comunicazione",NA,"Inglese;Altro","B","VERCELLI",45.3231,8.41533
"1739_1524","Banconista","Grande distribuzione;Sala","Comunicazione",NA,"Altro;Inglese","B","VERCELLI",45.3231,8.41533
"1739_1591","Banconista","Sala;Grande distribuzione","Comunicazione",NA,"Inglese;Altro","B","VERCELLI",45.3231,8.41533
"0167_11291","Banconista","Grande distribuzione","Orientamento alla qualità",NA,NA,"B","MONTEGROSSO D'ASTI",44.8206,8.23754
"0167_11985","Banconista","Grande distribuzione",NA,NA,NA,"B","COSTIGLIOLE D'ASTI",44.7839,8.18094
"0319_15872","Banconista","Grande distribuzione","Orientamento alla qualità;Orientamento al cliente;Comunicazione",NA,"Italiano","B","AZZANO MELLA",45.4546,10.1172
"0015_17048","Banconista","Grande distribuzione","Pianificazione e organizzazione;Orientamento al risultato;Orientamento alla qualità;Orientamento al cliente",NA,NA,NA,"PESCARA",42.4602,14.2102
"0594_19519","Banconista","Cucina","Team Working;Iniziativa",NA,"Inglese",NA,"PESCANTINA",45.4837,10.8685
"0055_20727","Banconista","Cucina;Sala","Pianificazione e organizzazione;Decision Making;Orientamento alla qualità",NA,NA,NA,"CASARILE",45.3178,9.10525
"0300_27370","Banconista","Sala","Comunicazione",NA,NA,NA,"PONSACCO",43.6238,10.6291
"3102_30269","Banconista","Segreteria","Decision Making;Orientamento al cliente;Comunicazione;Orientamento alla qualità",NA,NA,NA,"PRATO",43.8843,11.0909
"3102_30622","Banconista","Cucina;Sala;Grande distribuzione","Orientamento alla qualità;Team Working",NA,NA,"B","MODENA",44.6478,10.9254
"3124_30986","Banconista","Sala;Cucina;Grande distribuzione","Orientamento alla qualità;Team Working;Comunicazione",NA,NA,NA,"ROZZANO",45.3819,9.16055
"3102_32415","Banconista","Conceria;SAP","Orientamento alla qualità;Orientamento al risultato;Comunicazione",NA,"Inglese;Italiano","B","FIRENZE",43.7667,11.25
"3102_32420","Banconista","Altro","Orientamento digitale",NA,NA,"B","MILANO",45.4773,9.1815
"3102_32501","Banconista","Altro",NA,NA,NA,"B","MILANO",45.4773,9.1815
"3102_32568","Banconista","Altro","Orientamento digitale",NA,NA,"B","MILANO",45.4773,9.1815
"3102_32569","Banconista","Altro","Orientamento digitale",NA,NA,"B","MILANO",45.4773,9.1815
"3124_38334","Banconista","Vendita","Orientamento alla qualità",NA,NA,NA,"MILANO",45.4773,9.1815
"3124_41740","Banconista","Sala;Grande distribuzione","Comunicazione;Orientamento alla qualità",NA,NA,NA,"MODENA",44.6478,10.9254
"1678_769","barista","Grande distribuzione;Sala;Fogli di calcolo / elettronici","Comunicazione;Orientamento alla qualità",NA,NA,NA,"MONTE CERIGNONE",43.8405,12.4148
"0357_7484","barista","Sala;Grande distribuzione","Comunicazione;Orientamento alla qualità",NA,NA,NA,"TERNI",42.5671,12.6499
"0615_7992","barista","Sala;Grande distribuzione","Orientamento alla qualità;Comunicazione",NA,"Inglese",NA,"NAPOLI",40.8333,14.25
"0194_14272","barista","Altro;Grande distribuzione;Word Processor - Elaborazione testi;Sala;Fogli di calcolo / elettronici","Adattabilità al cambiamento",NA,"Inglese",NA,"TORTONA",44.8978,8.86374
"0015_16907","barista","Sala","Decision Making;Comunicazione;Orientamento alla qualità;Orientamento al cliente",NA,NA,NA,"MONTESILVANO",42.5039,14.138
"0477_20951","barista","Sala","Orientamento al cliente",NA,NA,NA,"CAROVIGNO",40.708,17.655
"0346_22931","barista","Sala;Word Processor - Elaborazione testi;Grande distribuzione;Fogli di calcolo / elettronici","Comunicazione;Orientamento alla qualità",NA,NA,NA,"FIUMICINO",41.7675,12.2291
"0300_25749","barista","Word Processor - Elaborazione testi;Sala;Grande distribuzione","Orientamento alla qualità;Comunicazione",NA,"Inglese","B","PECCIOLI",43.5495,10.72
"3102_31420","barista","Fogli di calcolo / elettronici;Piani;Word Processor - Elaborazione testi;Progettazione / Disegno tecnico;Cucina;Sala;Grande distribuzione","Orientamento alla qualità;Team Working;Decision Making;Comunicazione;Orientamento al cliente;Iniziativa",NA,"Altro;Inglese","B;A","CAMPI BISENZIO",43.8246,11.1324
"0059_52607","barista","Sala;Fogli di calcolo / elettronici;Word Processor - Elaborazione testi;Magazzino;Grande distribuzione","Problem solving e analisi;Comunicazione;Orientamento alla qualità;Team Working",NA,"Inglese",NA,"MILANO",45.4773,9.1815
"1739_669","Cameriere","Sala","Orientamento al cliente",NA,NA,"B","VERCELLI",45.3231,8.41533
"1739_1214","Cameriere","Sala","Orientamento al cliente",NA,NA,"B","VERCELLI",45.3231,8.41533
"0505_10124","Cameriere","Cucina;Sala;Progettazione / Disegno tecnico","Decision Making;Orientamento alla qualità;Orientamento al cliente;Comunicazione",NA,"Inglese;Altro",NA,"ORIO AL SERIO",45.6761,9.69265
"0200_10478","Cameriere","Sala","Orientamento al cliente;Decision Making",NA,"Inglese","B","STEZZANO",45.6507,9.64925
"0185_13710","Cameriere","Sala","Decision Making;Orientamento al cliente",NA,NA,"B","BELLINZAGO NOVARESE",45.5688,8.64323
"0377_14854","Cameriere","Sala","Decision Making;Orientamento al cliente",NA,"Inglese",NA,"RODENGO-SAIANO",45.5996,10.1072
"0335_15615","Cameriere","Sala","Decision Making;Orientamento al cliente",NA,"Inglese","B","POIRINO",44.9208,7.84693
"0015_15940","Cameriere","Sala","Orientamento al cliente;Decision Making",NA,NA,NA,"CITTA' SANT'ANGELO",42.5192,14.0602
"0015_16859","Cameriere","Sala","Orientamento al cliente",NA,NA,NA,"SPOLTORE",42.4534,14.141
"0015_16874","Cameriere","Sala","Orientamento al cliente",NA,NA,NA,"SPOLTORE",42.4534,14.141
"0015_16944","Cameriere","Sala","Orientamento al cliente",NA,NA,"B","SPOLTORE",42.4534,14.141
"0042_19026","Cameriere","Sala;Cucina","Orientamento al cliente;Orientamento alla qualità;Decision Making",NA,"Inglese;Altro",NA,"CASTELVETRO DI MODENA",44.5058,10.9464
"0055_19098","Cameriere","Sala","Decision Making;Orientamento al cliente",NA,NA,NA,"PAVIA",45.1845,9.16145
"0127_23559","Cameriere","Sala","Decision Making;Orientamento al cliente",NA,NA,NA,"BRESCIA",45.5248,10.2273
"0016_26808","Cameriere","Sala","Decision Making;Orientamento al cliente",NA,NA,NA,"TRENTO",46.0679,11.1211
"0016_27157","Cameriere","Sala","Decision Making;Orientamento al cliente",NA,NA,NA,"TRENTO",46.0679,11.1211
"0401_28387","Cameriere","Sala","Orientamento al cliente;Decision Making",NA,NA,"B","ARZIGNANO",45.5193,11.3386
"3124_39194","Cameriere","Sala","Orientamento al cliente;Decision Making",NA,"Inglese;Altro",NA,"MILANO",45.4773,9.1815
"1627_104","Carrellista/Mulettista","Stampaggio;Magazzino;Grande distribuzione","Orientamento al risultato;Team Working;Orientamento alla qualità",NA,NA,NA,"FARA VICENTINO",45.7398,11.5476
"1526_317","Carrellista/Mulettista","Magazzino;Grande distribuzione;Segreteria","Orientamento alla qualità;Orientamento al risultato;Problem solving e analisi;Team Working",NA,"Inglese",NA,"CAVRIAGO",44.6937,10.5275
"1619_670","Carrellista/Mulettista","Magazzino;Macchine utensili","Orientamento al risultato;Orientamento alla qualità;Team Working",NA,"Inglese",NA,"GROPELLO CAIROLI",45.1786,8.99275
"1638_744","Carrellista/Mulettista","Magazzino",NA,NA,"Inglese","B","CORREGGIO",44.7698,10.7823
"1575_799","Carrellista/Mulettista","Magazzino","Orientamento al risultato;Orientamento alla qualità;Team Working",NA,"Inglese","B","SAVIGLIANO",44.644,7.65593
"1526_1079","Carrellista/Mulettista","Magazzino;Produzione","Orientamento alla qualità;Orientamento al risultato;Team Working",NA,"Inglese",NA,"REGGIOLO",44.9185,10.8108
"1526_1169","Carrellista/Mulettista","Macchine utensili;Magazzino","Orientamento al risultato;Team Working;Orientamento alla qualità",NA,"Inglese",NA,"REGGIOLO",44.9185,10.8108
"1138_1841","Carrellista/Mulettista","Magazzino","Orientamento alla qualità;Team Working;Orientamento al risultato","Istituto Tecnico Superiore (ITS)","Inglese",NA,"RIVALTA DI TORINO",45.034,7.51842
"0106_8567","Carrellista/Mulettista","Magazzino","Orientamento alla qualità;Team Working;Orientamento al risultato",NA,"Inglese",NA,"ARSAGO SEPRIO",45.6884,8.73463
"0381_9594","Carrellista/Mulettista","Magazzino","Team Working;Orientamento alla qualità;Orientamento al risultato",NA,NA,"B","CANOSSA",44.5981,10.4049
"0292_10423","Carrellista/Mulettista","Meccanica;Magazzino","Orientamento alla qualità;Problem solving e analisi;Orientamento al risultato;Team Working",NA,"Inglese","B","BRUGHERIO",45.553,9.29907
"0429_11777","Carrellista/Mulettista","Produzione;Magazzino","Team Working;Orientamento al risultato;Orientamento alla qualità",NA,NA,"B","BORGOCARBONARA",NA,NA
"0139_12235","Carrellista/Mulettista","Magazzino;Produzione;Assistenza tecnica","Team Working;Problem solving e analisi;Orientamento alla qualità;Iniziativa;Decision Making;Orientamento al risultato",NA,"Italiano;Inglese","B","FOGGIA",41.4609,15.5492
"0034_12542","Carrellista/Mulettista","Magazzino","Team Working;Orientamento alla qualità;Orientamento al risultato",NA,"Inglese","B","MORDANO",44.398,11.8118
"0527_12706","Carrellista/Mulettista","Magazzino","Orientamento al risultato;Team Working",NA,NA,"B","CIVITELLA DEL TRONTO",42.7739,13.6658
"0036_13394","Carrellista/Mulettista","Magazzino","Orientamento al risultato;Orientamento alla qualità;Team Working;Problem solving e analisi",NA,"Inglese","B","LODI",45.3145,9.5039
"0015_15436","Carrellista/Mulettista","Alimentare;Produzione;Magazzino","Orientamento alla qualità;Team Working;Iniziativa;Orientamento al risultato","Diploma / Accademia","Inglese",NA,"PIANELLA",42.4003,14.0499
"0188_15709","Carrellista/Mulettista","Magazzino","Orientamento al risultato;Team Working;Orientamento alla qualità",NA,NA,"B","CAMBIANO",44.9683,7.77203
"0188_15792","Carrellista/Mulettista","Magazzino","Orientamento alla qualità;Orientamento al risultato;Team Working",NA,NA,"B","CAMBIANO",44.9683,7.77203
"0845_16344","Carrellista/Mulettista","Magazzino","Problem solving e analisi;Orientamento alla qualità;Team Working;Orientamento al risultato",NA,"Italiano;Inglese","B","FABBRICO",44.8695,10.8116
"0095_16997","Carrellista/Mulettista","Magazzino","Orientamento al risultato;Team Working",NA,NA,NA,"PERUGIA",43.1122,12.3888
"0176_17479","Carrellista/Mulettista","Industrial;Magazzino","Orientamento al risultato;Orientamento alla qualità;Team Working",NA,NA,"B","CASTEL SAN GIOVANNI",45.0583,9.43346
"0033_18575","Carrellista/Mulettista","Segreteria;Grande distribuzione;Produzione;Magazzino;Alimentare","Team Working;Orientamento al risultato;Problem solving e analisi;Orientamento alla qualità",NA,"Inglese","B","NEGRAR DI VALPOLICELLA",45.5288,10.938
"0298_18801","Carrellista/Mulettista","Magazzino","Orientamento al risultato;Team Working;Orientamento alla qualità",NA,NA,"B","ALANNO",42.2954,13.9711
"0298_19309","Carrellista/Mulettista","Magazzino","Orientamento al risultato;Team Working",NA,NA,NA,"CEPAGATTI",42.3649,14.0758
"0055_19351","Carrellista/Mulettista","Magazzino","Orientamento alla qualità;Team Working;Orientamento al risultato",NA,NA,"B","CASORATE PRIMO",45.3124,9.01685
"0178_19730","Carrellista/Mulettista","Magazzino","Team Working;Orientamento al risultato;Orientamento alla qualità",NA,NA,NA,"SAN MAURIZIO CANAVESE",45.217,7.63052
"0055_20759","Carrellista/Mulettista","Magazzino;Industrial","Orientamento alla qualità;Pianificazione e organizzazione",NA,NA,"B","DORNO",45.156,8.95275
"0457_21225","Carrellista/Mulettista","Magazzino","Orientamento al risultato;Team Working;Orientamento alla qualità",NA,NA,NA,"CASALOLDO",45.2548,10.4744
"0553_21619","Carrellista/Mulettista","Magazzino","Team Working;Orientamento al risultato;Orientamento alla qualità",NA,NA,NA,"TORINO",45.0705,7.68682
"0457_21934","Carrellista/Mulettista","Word Processor - Elaborazione testi;Sistemi Operativi;Browser per Internet;Posta elettronica/Messaggistica;Magazzino","Problem solving e analisi;Comunicazione;Team Working;Orientamento al risultato;Orientamento al cliente;Iniziativa;Orientamento alla qualità",NA,"Inglese","B","CASALOLDO",45.2548,10.4744
"0499_22425","Carrellista/Mulettista","Magazzino","Problem solving e analisi;Team Working;Orientamento alla qualità;Orientamento al risultato",NA,NA,NA,"PERUGIA",43.1122,12.3888
"0499_22490","Carrellista/Mulettista","Magazzino","Team Working;Orientamento al risultato;Orientamento alla qualità",NA,NA,NA,"ZOLA PREDOSA",44.4897,11.2183
"0457_22805","Carrellista/Mulettista","Magazzino","Orientamento al risultato;Team Working",NA,NA,NA,"CANNETO SULL'OGLIO",45.1527,10.3809
"0457_23254","Carrellista/Mulettista","Magazzino","Problem solving e analisi;Team Working",NA,NA,"B","CANNETO SULL'OGLIO",45.1527,10.3809
"0044_23630","Carrellista/Mulettista","Magazzino","Orientamento al risultato;Orientamento alla qualità;Team Working;Problem solving e analisi",NA,NA,"B","SAN MARTINO IN RIO",44.732,10.7821
"0047_25455","Carrellista/Mulettista","Magazzino","Team Working;Orientamento al risultato",NA,NA,"B","COLLEFERRO",41.7262,13.0036
"0123_25628","Carrellista/Mulettista","Produzione;Magazzino","Team Working;Orientamento al risultato;Orientamento alla qualità",NA,"Inglese;Italiano","B","MONCALIERI",44.9963,7.69032
"0016_26355","Carrellista/Mulettista","Magazzino","Orientamento alla qualità;Orientamento al risultato;Team Working",NA,NA,NA,"LAVIS",46.1395,11.1129
"0123_27125","Carrellista/Mulettista","Magazzino","Orientamento alla qualità;Problem solving e analisi;Orientamento al risultato;Team Working",NA,NA,"B","GRUGLIASCO",45.0681,7.57762
